Filename,GPS Event,GPS Time,Weeks:Seconds,Longitude,Latitude,Altitude,Pitch,Roll,Yaw,Yaw Type,ISO,Aperture,Shutter Speed 1/#
21-45-06.798_RGB_24351_27768.IIQ,1,21:45:06.798473,2073:78306.798474,-127.20931,51.599243,2865.870 m,0.93000,0.68000,83.37000,T,50,5.6,1000
21-45-11.800_RGB_24352_27769.IIQ,2,21:45:11.800294,2073:78311.800294,-127.205423,51.59913,2870.179 m,0.71000,0.56000,84.05000,T,400,5.6,1000
21-45-16.796_RGB_24353_27770.IIQ,3,21:45:16.796111,2073:78316.796112,-127.201543,51.599024,2874.230 m,0.57000,-0.14000,83.35000,T,400,5.6,1000
21-45-21.796_RGB_24354_27771.IIQ,4,21:45:21.796931,2073:78321.796932,-127.19764,51.598933,2876.690 m,0.14000,1.31000,83.77000,T,400,5.6,1000
21-45-26.796_RGB_24355_27772.IIQ,5,21:45:26.796751,2073:78326.796751,-127.193685,51.598816,2878.160 m,-0.30000,1.11000,84.62000,T,400,5.6,1000
21-45-31.796_RGB_24356_27773.IIQ,6,21:45:31.796568,2073:78331.796568,-127.189654,51.598681,2877.150 m,-0.71000,0.39000,85.26000,T,400,5.6,1000
21-45-36.796_RGB_24357_27774.IIQ,7,21:45:36.79639,2073:78336.79639,-127.18553,51.598544,2874.369 m,-0.77000,0.03000,85.29000,T,400,5.6,1000
21-45-41.797_RGB_24358_27775.IIQ,8,21:45:41.797206,2073:78341.797206,-127.181312,51.598414,2870.120 m,-0.91000,0.55000,85.62000,T,400,5.6,1000
21-45-46.796_RGB_24359_27776.IIQ,9,21:45:46.796025,2073:78346.796025,-127.177003,51.598288,2864.739 m,-0.65000,-0.62000,85.25000,T,400,5.6,1000
21-45-51.796_RGB_24360_27777.IIQ,10,21:45:51.796843,2073:78351.796844,-127.172629,51.598206,2861.069 m,-0.22000,-0.52000,84.37000,T,320,5.6,1000
21-45-56.796_RGB_24361_27778.IIQ,11,21:45:56.796663,2073:78356.796663,-127.168218,51.598164,2857.300 m,0.06000,-0.64000,83.83000,T,320,5.6,1000
21-46-01.796_RGB_24362_27779.IIQ,12,21:46:01.79648,2073:78361.796481,-127.163786,51.598152,2852.800 m,0.40000,0.05000,83.78000,T,320,5.6,1000
21-46-06.796_RGB_24363_27780.IIQ,13,21:46:06.796302,2073:78366.796302,-127.159354,51.598144,2850.630 m,0.79000,1.27000,83.70000,T,320,5.6,1000
21-46-11.797_RGB_24364_27781.IIQ,14,21:46:11.797122,2073:78371.797122,-127.154945,51.598106,2849.360 m,0.71000,1.36000,84.61000,T,320,5.6,1000
21-46-16.796_RGB_24365_27782.IIQ,15,21:46:16.796939,2073:78376.796939,-127.150564,51.598011,2848.530 m,0.89000,1.97000,85.57000,T,320,5.6,1000
21-46-21.796_RGB_24366_27783.IIQ,16,21:46:21.796759,2073:78381.796759,-127.146218,51.597873,2847.589 m,1.12000,0.13000,86.14000,T,320,5.6,1000
21-46-26.796_RGB_24367_27784.IIQ,17,21:46:26.796579,2073:78386.796579,-127.141938,51.597725,2852.509 m,1.80000,-0.07000,86.01000,T,320,5.6,1000
21-46-31.796_RGB_24368_27785.IIQ,18,21:46:31.796394,2073:78391.796394,-127.137765,51.597566,2862.820 m,2.08000,-0.54000,85.48000,T,320,5.6,1000
21-46-36.797_RGB_24369_27786.IIQ,19,21:46:36.797214,2073:78396.797214,-127.133705,51.597453,2874.570 m,2.37000,-0.59000,84.59000,T,320,5.6,1000
21-46-41.797_RGB_24370_27787.IIQ,20,21:46:41.797028,2073:78401.797029,-127.129721,51.597403,2879.889 m,0.25000,-0.36000,82.83000,T,250,5.6,1000
21-46-46.796_RGB_24371_27788.IIQ,21,21:46:46.796853,2073:78406.796853,-127.125722,51.597399,2876.989 m,0.09000,1.87000,82.49000,T,200,5.6,1000
21-46-51.796_RGB_24372_27789.IIQ,22,21:46:51.796671,2073:78411.796671,-127.12168,51.597365,2872.710 m,0.02000,1.86000,83.16000,T,200,5.6,1000
21-46-56.797_RGB_24373_27790.IIQ,23,21:46:56.797493,2073:78416.797494,-127.117602,51.597273,2868.110 m,0.39000,0.74000,83.75000,T,200,5.6,1000
21-47-01.797_RGB_24374_27791.IIQ,24,21:47:01.797313,2073:78421.797313,-127.113513,51.597144,2865.509 m,0.46000,0.97000,84.31000,T,200,5.6,1000
21-47-06.797_RGB_24375_27792.IIQ,25,21:47:06.797133,2073:78426.797133,-127.109429,51.596983,2864.129 m,0.70000,0.87000,85.04000,T,250,5.6,1000
21-47-11.796_RGB_24376_27793.IIQ,26,21:47:11.79695,2073:78431.79695,-127.105359,51.596798,2865.059 m,0.85000,-0.59000,84.77000,T,320,5.6,1000
21-47-16.797_RGB_24377_27794.IIQ,27,21:47:16.797768,2073:78436.797769,-127.101312,51.596646,2864.240 m,0.74000,-0.59000,83.85000,T,320,5.6,1000
21-47-21.797_RGB_24378_27795.IIQ,28,21:47:21.797588,2073:78441.797588,-127.097299,51.596544,2860.909 m,0.94000,-0.39000,82.63000,T,400,5.6,1000
21-47-26.796_RGB_24379_27796.IIQ,29,21:47:26.796403,2073:78446.796404,-127.093338,51.596497,2860.629 m,0.93000,-0.57000,82.44000,T,400,5.6,1000
21-47-31.796_RGB_24380_27797.IIQ,30,21:47:31.796222,2073:78451.796223,-127.089416,51.59648,2864.219 m,1.26000,0.42000,80.33000,T,400,5.6,1000
21-47-36.797_RGB_24381_27798.IIQ,31,21:47:36.797046,2073:78456.797046,-127.085516,51.596457,2869.409 m,0.88000,1.37000,81.20000,T,400,5.6,1000
21-47-41.796_RGB_24382_27799.IIQ,32,21:47:41.796866,2073:78461.796866,-127.081619,51.596404,2870.929 m,0.42000,0.44000,82.14000,T,400,5.6,1000
21-47-46.796_RGB_24383_27800.IIQ,33,21:47:46.796684,2073:78466.796684,-127.077698,51.596331,2869.549 m,0.39000,0.73000,82.42000,T,400,5.6,1000
21-47-51.797_RGB_24384_27801.IIQ,34,21:47:51.797508,2073:78471.797508,-127.073747,51.596243,2867.919 m,0.34000,0.30000,83.33000,T,400,5.6,1000
21-47-56.796_RGB_24385_27802.IIQ,35,21:47:56.796323,2073:78476.796323,-127.069781,51.59614,2865.880 m,0.52000,-0.04000,82.98000,T,400,5.6,1000
21-48-01.797_RGB_24386_27803.IIQ,36,21:48:01.797147,2073:78481.797147,-127.065809,51.596033,2865.019 m,0.51000,0.32000,83.29000,T,400,5.6,1000
21-48-06.796_RGB_24387_27804.IIQ,37,21:48:06.796965,2073:78486.796965,-127.061839,51.595923,2863.669 m,0.63000,0.66000,83.06000,T,400,5.6,1000
21-48-11.796_RGB_24388_27805.IIQ,38,21:48:11.796782,2073:78491.796783,-127.057866,51.595796,2861.579 m,0.71000,0.42000,83.45000,T,400,5.6,1000
21-48-16.797_RGB_24389_27806.IIQ,39,21:48:16.797604,2073:78496.797605,-127.053895,51.595663,2859.659 m,0.93000,-0.84000,83.20000,T,400,5.6,1000
21-48-21.797_RGB_24390_27807.IIQ,40,21:48:21.797422,2073:78501.797422,-127.049947,51.595564,2857.400 m,0.97000,-0.20000,82.89000,T,400,5.6,1000
21-48-26.797_RGB_24391_27808.IIQ,41,21:48:26.797244,2073:78506.797244,-127.046026,51.59551,2855.710 m,1.10000,-0.62000,81.47000,T,400,5.6,1000
21-48-31.797_RGB_24392_27809.IIQ,42,21:48:31.797061,2073:78511.797061,-127.042141,51.595476,2854.000 m,1.29000,-0.62000,81.64000,T,400,5.6,1000
21-48-36.797_RGB_24393_27810.IIQ,43,21:48:36.797881,2073:78516.797881,-127.038305,51.595457,2853.539 m,1.48000,1.93000,81.69000,T,400,5.6,1000
21-48-41.797_RGB_24394_27811.IIQ,44,21:48:41.797697,2073:78521.797697,-127.034504,51.595392,2855.389 m,1.94000,0.88000,82.72000,T,400,5.6,1000
21-48-46.796_RGB_24395_27812.IIQ,45,21:48:46.796516,2073:78526.796516,-127.030747,51.595285,2862.099 m,1.91000,0.78000,83.21000,T,400,5.6,1000
21-48-51.797_RGB_24396_27813.IIQ,46,21:48:51.797338,2073:78531.797338,-127.02703,51.595149,2870.199 m,1.97000,0.32000,83.87000,T,400,5.6,1000
21-48-56.798_RGB_24397_27814.IIQ,47,21:48:56.79816,2073:78536.79816,-127.023347,51.59501,2877.350 m,2.07000,-0.88000,83.08000,T,400,5.6,1000
21-49-01.796_RGB_24398_27815.IIQ,48,21:49:01.796979,2073:78541.796979,-127.019698,51.594909,2883.500 m,1.99000,-0.52000,81.85000,T,400,5.6,1000
21-49-06.797_RGB_24399_27816.IIQ,49,21:49:06.7978,2073:78546.797801,-127.01607,51.594837,2888.440 m,1.99000,0.03000,81.68000,T,400,5.6,1000
21-49-11.797_RGB_24400_27817.IIQ,50,21:49:11.797619,2073:78551.797619,-127.012458,51.594778,2893.039 m,1.91000,-0.04000,81.57000,T,400,5.6,1000
21-49-16.797_RGB_24401_27818.IIQ,51,21:49:16.797439,2073:78556.797439,-127.008855,51.594728,2898.000 m,1.80000,0.93000,81.38000,T,400,5.6,1000
21-49-21.797_RGB_24402_27819.IIQ,52,21:49:21.797258,2073:78561.797259,-127.005247,51.594653,2904.010 m,1.34000,1.42000,82.00000,T,400,5.6,1000
21-49-26.798_RGB_24403_27820.IIQ,53,21:49:26.798078,2073:78566.798078,-127.001572,51.594537,2902.280 m,-0.57000,1.16000,82.99000,T,400,5.6,1000
21-49-31.797_RGB_24404_27821.IIQ,54,21:49:31.797894,2073:78571.797894,-126.997766,51.594394,2899.380 m,-0.65000,0.20000,83.80000,T,400,5.6,1000
21-49-36.797_RGB_24405_27822.IIQ,55,21:49:36.797713,2073:78576.797713,-126.993857,51.594263,2897.139 m,-0.85000,-0.79000,83.00000,T,400,5.6,1000
21-49-41.797_RGB_24406_27823.IIQ,56,21:49:41.797531,2073:78581.797531,-126.989861,51.594171,2894.009 m,-0.81000,-0.38000,82.78000,T,400,5.6,1000
21-49-46.797_RGB_24407_27824.IIQ,57,21:49:46.797347,2073:78586.797348,-126.985786,51.594093,2891.010 m,-0.90000,-0.30000,83.17000,T,400,5.6,1000
21-49-51.797_RGB_24408_27825.IIQ,58,21:49:51.797172,2073:78591.797172,-126.981642,51.594016,2886.890 m,-0.83000,0.18000,83.29000,T,400,5.6,1000
21-49-56.797_RGB_24409_27826.IIQ,59,21:49:56.797993,2073:78596.797993,-126.977451,51.593935,2881.170 m,-0.57000,0.45000,83.54000,T,400,5.6,1000
21-50-01.797_RGB_24410_27827.IIQ,60,21:50:01.797812,2073:78601.797812,-126.973253,51.593836,2874.070 m,0.10000,0.06000,84.08000,T,400,5.6,1000
21-50-06.797_RGB_24411_27828.IIQ,61,21:50:06.797632,2073:78606.797632,-126.969105,51.593721,2867.049 m,0.97000,-0.84000,84.72000,T,400,5.6,1000
21-50-11.798_RGB_24412_27829.IIQ,62,21:50:11.798454,2073:78611.798454,-126.965077,51.593631,2864.530 m,2.21000,-0.28000,84.09000,T,400,5.6,1000
21-50-16.798_RGB_24413_27830.IIQ,63,21:50:16.798271,2073:78616.798272,-126.961209,51.593593,2866.740 m,2.50000,-0.91000,82.63000,T,400,5.6,1000
21-50-21.797_RGB_24414_27831.IIQ,64,21:50:21.797093,2073:78621.797094,-126.957494,51.593581,2869.440 m,2.80000,1.44000,81.52000,T,320,5.6,1000
21-50-26.797_RGB_24415_27832.IIQ,65,21:50:26.797911,2073:78626.797912,-126.953898,51.59352,2875.549 m,2.76000,1.51000,84.06000,T,320,5.6,1000
21-50-31.797_RGB_24416_27833.IIQ,66,21:50:31.797732,2073:78631.797732,-126.950392,51.5934,2880.619 m,2.45000,0.21000,83.88000,T,320,5.6,1000
21-50-36.797_RGB_24417_27834.IIQ,67,21:50:36.797548,2073:78636.797549,-126.946947,51.593276,2883.920 m,2.11000,-0.49000,83.99000,T,320,5.6,1000
21-50-41.798_RGB_24418_27835.IIQ,68,21:50:41.798372,2073:78641.798372,-126.943543,51.593173,2888.019 m,1.97000,-0.20000,83.91000,T,400,5.6,1000
21-50-46.798_RGB_24419_27836.IIQ,69,21:50:46.798185,2073:78646.798186,-126.940161,51.593088,2893.280 m,1.45000,0.13000,83.37000,T,400,5.6,1000
21-50-51.798_RGB_24420_27837.IIQ,70,21:50:51.798005,2073:78651.798006,-126.936769,51.593011,2896.710 m,0.86000,1.01000,82.81000,T,400,5.6,1000
21-50-56.797_RGB_24421_27838.IIQ,71,21:50:56.797827,2073:78656.797827,-126.933328,51.592916,2898.860 m,0.56000,0.74000,83.36000,T,400,5.6,1000
21-51-01.797_RGB_24422_27839.IIQ,72,21:51:01.797646,2073:78661.797646,-126.929819,51.592793,2900.809 m,-0.12000,1.05000,83.86000,T,400,5.6,1000
21-51-06.798_RGB_24423_27840.IIQ,73,21:51:06.798469,2073:78666.798469,-126.926221,51.592643,2901.539 m,-0.43000,-0.28000,84.43000,T,400,5.6,1000
21-51-11.797_RGB_24424_27841.IIQ,74,21:51:11.797286,2073:78671.797286,-126.922532,51.592505,2902.079 m,-0.67000,0.09000,83.45000,T,400,5.6,1000
21-51-16.798_RGB_24425_27842.IIQ,75,21:51:16.798104,2073:78676.798104,-126.918765,51.592381,2902.730 m,-0.98000,0.17000,84.14000,T,400,5.6,1000
21-51-21.797_RGB_24426_27843.IIQ,76,21:51:21.797925,2073:78681.797925,-126.91493,51.59225,2900.289 m,-0.98000,0.32000,84.07000,T,400,5.6,1000
21-51-26.798_RGB_24427_27844.IIQ,77,21:51:26.798743,2073:78686.798744,-126.911038,51.592101,2893.990 m,-0.87000,-0.95000,84.95000,T,400,5.6,1000
21-51-31.797_RGB_24428_27845.IIQ,78,21:51:31.79756,2073:78691.79756,-126.907108,51.591976,2884.759 m,-0.78000,-0.35000,83.75000,T,400,5.6,1000
21-51-36.798_RGB_24429_27846.IIQ,79,21:51:36.798383,2073:78696.798383,-126.903163,51.591868,2874.289 m,0.19000,0.02000,84.06000,T,400,5.6,1000
21-51-41.798_RGB_24430_27847.IIQ,80,21:51:41.7982,2073:78701.7982,-126.899245,51.591764,2867.909 m,1.11000,-1.99000,84.51000,T,400,5.6,1000
21-51-46.798_RGB_24431_27848.IIQ,81,21:51:46.79802,2073:78706.79802,-126.895418,51.591708,2864.730 m,1.71000,-0.57000,84.35000,T,400,5.6,1000
21-51-51.797_RGB_24432_27849.IIQ,82,21:51:51.797839,2073:78711.79784,-126.891705,51.591683,2866.849 m,1.90000,-0.53000,83.16000,T,400,5.6,1000
21-51-56.798_RGB_24433_27850.IIQ,83,21:51:56.79866,2073:78716.798661,-126.888099,51.591673,2871.849 m,1.90000,-0.46000,83.31000,T,400,5.6,1000
21-52-01.798_RGB_24434_27851.IIQ,84,21:52:01.798483,2073:78721.798483,-126.884589,51.591678,2876.059 m,1.93000,-0.25000,82.59000,T,400,5.6,1000
21-52-06.798_RGB_24435_27852.IIQ,85,21:52:06.798301,2073:78726.798302,-126.881159,51.591674,2880.339 m,1.90000,2.34000,83.90000,T,400,5.6,1000
21-52-11.798_RGB_24436_27853.IIQ,86,21:52:11.798121,2073:78731.798122,-126.877783,51.5916,2885.849 m,1.87000,-0.20000,84.65000,T,400,5.6,1000
21-52-16.797_RGB_24437_27854.IIQ,87,21:52:16.797944,2073:78736.797944,-126.874458,51.591523,2891.199 m,1.33000,0.67000,84.16000,T,400,5.6,1000
21-52-21.797_RGB_24438_27855.IIQ,88,21:52:21.797764,2073:78741.797764,-126.871156,51.591448,2894.760 m,0.81000,-0.34000,84.55000,T,400,5.6,1000
21-52-26.798_RGB_24439_27856.IIQ,89,21:52:26.798584,2073:78746.798584,-126.867844,51.591382,2896.320 m,0.49000,1.65000,84.22000,T,400,5.6,1000
21-52-31.798_RGB_24440_27857.IIQ,90,21:52:31.798399,2073:78751.7984,-126.864496,51.591285,2896.400 m,0.38000,0.06000,85.39000,T,400,5.6,1000
21-52-36.798_RGB_24441_27858.IIQ,91,21:52:36.798219,2073:78756.79822,-126.861106,51.591169,2895.010 m,0.05000,0.96000,85.61000,T,400,5.6,1000
21-52-41.798_RGB_24442_27859.IIQ,92,21:52:41.798039,2073:78761.798039,-126.857673,51.591025,2892.119 m,-0.07000,0.82000,85.68000,T,320,5.6,1000
21-52-46.798_RGB_24443_27860.IIQ,93,21:52:46.798855,2073:78766.798856,-126.854201,51.590851,2887.170 m,-0.12000,1.16000,86.45000,T,250,5.6,1000
21-52-51.798_RGB_24444_27861.IIQ,94,21:52:51.798678,2073:78771.798678,-126.850696,51.590646,2882.219 m,0.18000,-0.96000,86.59000,T,200,5.6,1000
21-52-56.798_RGB_24445_27862.IIQ,95,21:52:56.798498,2073:78776.798499,-126.847179,51.590479,2880.109 m,0.44000,-1.96000,84.57000,T,160,5.6,1000
21-53-01.798_RGB_24446_27863.IIQ,96,21:53:01.798322,2073:78781.798322,-126.843672,51.590389,2882.409 m,0.29000,0.05000,83.85000,T,125,5.6,1000
21-53-06.798_RGB_24447_27864.IIQ,97,21:53:06.798139,2073:78786.798139,-126.840166,51.590308,2886.480 m,0.32000,-0.23000,83.66000,T,125,5.6,1000
21-53-11.798_RGB_24448_27865.IIQ,98,21:53:11.79896,2073:78791.79896,-126.836649,51.590236,2890.590 m,0.14000,0.34000,83.15000,T,125,5.6,1000
21-53-16.798_RGB_24449_27866.IIQ,99,21:53:16.798781,2073:78796.798781,-126.833111,51.590171,2893.610 m,0.01000,-0.13000,83.37000,T,160,5.6,1000
21-53-21.798_RGB_24450_27867.IIQ,100,21:53:21.798601,2073:78801.798601,-126.829549,51.590109,2897.179 m,-0.13000,0.10000,83.77000,T,200,5.6,1000
21-53-26.798_RGB_24451_27868.IIQ,101,21:53:26.798422,2073:78806.798422,-126.825958,51.590051,2899.049 m,-0.49000,-0.05000,83.55000,T,200,5.6,1000
21-53-31.799_RGB_24452_27869.IIQ,102,21:53:31.799239,2073:78811.79924,-126.822323,51.590002,2896.710 m,-0.61000,0.32000,83.57000,T,200,5.6,1000
21-53-36.798_RGB_24453_27870.IIQ,103,21:53:36.798058,2073:78816.798058,-126.818637,51.589948,2890.000 m,-0.72000,0.61000,83.43000,T,200,5.6,1000
21-53-41.797_RGB_24454_27871.IIQ,104,21:53:41.797873,2073:78821.797874,-126.814907,51.589875,2880.360 m,-0.47000,0.12000,85.45000,T,250,5.6,1000
21-53-46.798_RGB_24455_27872.IIQ,105,21:53:46.798699,2073:78826.798699,-126.811181,51.589807,2870.809 m,0.50000,-0.65000,83.90000,T,250,5.6,1000
21-53-51.798_RGB_24456_27873.IIQ,106,21:53:51.798517,2073:78831.798517,-126.807517,51.589753,2865.769 m,1.39000,-0.35000,84.34000,T,250,5.6,1000
21-53-56.798_RGB_24457_27874.IIQ,107,21:53:56.798336,2073:78836.798336,-126.803944,51.58971,2862.570 m,1.95000,0.37000,83.86000,T,250,5.6,1000
21-54-01.799_RGB_24458_27875.IIQ,108,21:54:01.799155,2073:78841.799156,-126.800466,51.589652,2861.279 m,2.38000,0.57000,84.97000,T,250,5.6,1000
21-54-06.798_RGB_24459_27876.IIQ,109,21:54:06.798972,2073:78846.798972,-126.797088,51.589567,2862.230 m,2.93000,-0.70000,85.72000,T,320,5.6,1000
21-54-11.797_RGB_24460_27877.IIQ,110,21:54:11.797791,2073:78851.797791,-126.79381,51.589503,2862.369 m,3.18000,-0.69000,85.35000,T,320,5.6,1000
21-54-16.798_RGB_24461_27878.IIQ,111,21:54:16.798613,2073:78856.798614,-126.790615,51.589485,2862.019 m,3.19000,-0.65000,84.09000,T,320,5.6,1000
21-54-21.798_RGB_24462_27879.IIQ,112,21:54:21.798431,2073:78861.798432,-126.787489,51.589482,2862.960 m,3.10000,3.50000,85.79000,T,320,5.6,1000
21-54-26.798_RGB_24463_27880.IIQ,113,21:54:26.798253,2073:78866.798253,-126.784397,51.589389,2864.320 m,3.13000,1.30000,87.90000,T,320,5.6,1000
21-54-31.799_RGB_24464_27881.IIQ,114,21:54:31.799075,2073:78871.799075,-126.78133,51.589254,2865.460 m,3.09000,-0.01000,87.74000,T,320,5.6,1000
21-54-36.798_RGB_24465_27882.IIQ,115,21:54:36.79889,2073:78876.79889,-126.778279,51.589117,2867.510 m,2.86000,0.02000,87.84000,T,320,5.6,1000
21-54-41.798_RGB_24466_27883.IIQ,116,21:54:41.798712,2073:78881.798712,-126.775233,51.588996,2869.990 m,2.62000,-0.03000,87.48000,T,320,5.6,1000
21-54-46.798_RGB_24467_27884.IIQ,117,21:54:46.798534,2073:78886.798534,-126.772174,51.58889,2871.619 m,2.33000,0.63000,87.59000,T,320,5.6,1000
21-54-51.799_RGB_24468_27885.IIQ,118,21:54:51.79935,2073:78891.79935,-126.769083,51.588775,2873.059 m,2.23000,1.29000,86.09000,T,320,5.6,1000
21-54-56.799_RGB_24469_27886.IIQ,119,21:54:56.799173,2073:78896.799173,-126.765956,51.588627,2874.029 m,1.81000,1.61000,87.20000,T,320,5.6,1000
21-55-01.798_RGB_24470_27887.IIQ,120,21:55:01.798989,2073:78901.798989,-126.762793,51.58844,2874.139 m,1.61000,1.72000,87.24000,T,320,5.6,1000
21-55-06.798_RGB_24471_27888.IIQ,121,21:55:06.798811,2073:78906.798811,-126.759593,51.588206,2874.839 m,1.55000,0.23000,87.34000,T,400,5.6,1000
21-55-11.798_RGB_24472_27889.IIQ,122,21:55:11.798626,2073:78911.798627,-126.756356,51.587975,2873.819 m,1.89000,-1.10000,85.43000,T,400,5.6,1000
21-55-16.799_RGB_24473_27890.IIQ,123,21:55:16.799452,2073:78916.799452,-126.753085,51.587812,2872.119 m,-0.63000,13.61000,84.44000,T,400,5.6,1000
21-55-21.798_RGB_24474_27891.IIQ,124,21:55:21.798269,2073:78921.79827,-126.749683,51.58732,2859.719 m,0.32000,12.68000,97.59000,T,400,5.6,1000
21-56-59.206_RGB_24475_27892.IIQ,125,21:56:59.206013,2073:79019.206013,-126.743198,51.593654,2872.070 m,5.27000,-12.91000,293.92001,T,400,5.6,1000
21-57-04.207_RGB_24476_27893.IIQ,126,21:57:04.207599,2073:79024.207599,-126.74832,51.594058,2875.889 m,1.44000,-7.75000,281.32999,T,400,5.6,1000
21-57-09.207_RGB_24477_27894.IIQ,127,21:57:09.207571,2073:79029.207571,-126.753692,51.594092,2870.670 m,1.98000,-0.45000,278.03000,T,400,5.6,1000
21-57-14.207_RGB_24478_27895.IIQ,128,21:57:14.20736,2073:79034.20736,-126.759177,51.594062,2868.889 m,1.79000,0.58000,278.76001,T,400,5.6,1000
21-57-19.207_RGB_24479_27896.IIQ,129,21:57:19.207143,2073:79039.207144,-126.764713,51.594041,2870.929 m,3.77000,2.57000,276.23001,T,400,5.6,1000
21-57-24.207_RGB_24480_27897.IIQ,130,21:57:24.207932,2073:79044.207932,-126.770213,51.594052,2879.539 m,4.82000,1.41000,278.17999,T,400,5.6,1000
21-57-29.210_RGB_24481_27898.IIQ,131,21:57:29.210732,2073:79049.210733,-126.775615,51.594109,2895.619 m,4.84000,3.31000,276.53000,T,400,5.6,1000
21-57-34.207_RGB_24482_27899.IIQ,132,21:57:34.207523,2073:79054.207524,-126.780898,51.594213,2904.699 m,5.87000,2.14000,281.47000,T,400,5.6,1000
21-57-39.208_RGB_24483_27900.IIQ,133,21:57:39.20835,2073:79059.208351,-126.786103,51.594375,2908.110 m,4.06000,4.48000,283.26999,T,400,5.6,1000
21-57-44.208_RGB_24484_27901.IIQ,134,21:57:44.208169,2073:79064.20817,-126.791259,51.594633,2907.389 m,4.79000,-0.11000,285.07001,T,400,5.6,1000
21-57-49.207_RGB_24485_27902.IIQ,135,21:57:49.207838,2073:79069.207838,-126.796392,51.594883,2904.879 m,4.45000,-0.66000,284.39999,T,400,5.6,1000
21-57-54.207_RGB_24486_27903.IIQ,136,21:57:54.207811,2073:79074.207812,-126.801553,51.595075,2897.069 m,3.79000,0.42000,283.50000,T,400,5.6,1000
21-57-59.207_RGB_24487_27904.IIQ,137,21:57:59.207634,2073:79079.207634,-126.806756,51.595239,2888.460 m,3.42000,1.95000,285.23001,T,320,5.6,1000
21-58-04.208_RGB_24488_27905.IIQ,138,21:58:04.208454,2073:79084.208454,-126.811986,51.595438,2881.380 m,2.49000,-0.72000,283.79001,T,200,5.6,1000
21-58-09.207_RGB_24489_27906.IIQ,139,21:58:09.207274,2073:79089.207275,-126.817294,51.595613,2873.679 m,2.24000,-0.82000,282.69000,T,160,5.6,1000
21-58-14.207_RGB_24490_27907.IIQ,140,21:58:14.207091,2073:79094.207091,-126.822713,51.595752,2865.860 m,1.18000,-0.54000,282.23999,T,160,5.6,1000
21-58-19.207_RGB_24491_27908.IIQ,141,21:58:19.207521,2073:79099.207521,-126.828258,51.595863,2862.579 m,1.67000,2.28000,281.82999,T,160,5.6,1000
21-58-24.207_RGB_24492_27909.IIQ,142,21:58:24.207735,2073:79104.207735,-126.833857,51.596014,2863.589 m,2.11000,0.94000,282.62000,T,200,5.6,1000
21-58-29.207_RGB_24493_27910.IIQ,143,21:58:29.207557,2073:79109.207557,-126.839481,51.596182,2868.159 m,3.43000,-0.86000,282.48999,T,200,5.6,1000
21-58-34.208_RGB_24494_27911.IIQ,144,21:58:34.208375,2073:79114.208376,-126.845081,51.596303,2879.329 m,3.03000,1.44000,281.54999,T,200,5.6,1000
21-58-39.207_RGB_24495_27912.IIQ,145,21:58:39.207657,2073:79119.207658,-126.850634,51.596441,2888.250 m,3.60000,1.60000,282.26999,T,200,5.6,1000
21-58-44.208_RGB_24496_27913.IIQ,146,21:58:44.208018,2073:79124.208019,-126.856143,51.596604,2895.679 m,3.37000,0.64000,282.03000,T,250,5.6,1000
21-58-49.207_RGB_24497_27914.IIQ,147,21:58:49.20784,2073:79129.20784,-126.861636,51.596749,2902.819 m,3.22000,0.37000,281.03000,T,320,5.6,1000
21-58-54.207_RGB_24498_27915.IIQ,148,21:58:54.207662,2073:79134.207662,-126.867145,51.596869,2908.380 m,1.92000,-0.55000,280.39999,T,320,5.6,1000
21-58-59.207_RGB_24499_27916.IIQ,149,21:58:59.207481,2073:79139.207481,-126.872736,51.596937,2912.180 m,1.47000,-0.37000,279.51999,T,320,5.6,1000
21-59-04.208_RGB_24500_27917.IIQ,150,21:59:04.208299,2073:79144.208299,-126.878391,51.596984,2917.210 m,3.90000,1.37000,279.98999,T,400,5.6,1000
21-59-09.207_RGB_24501_27918.IIQ,151,21:59:09.207347,2073:79149.207347,-126.883989,51.597056,2925.920 m,2.83000,-0.48000,280.22000,T,400,5.6,1000
21-59-14.208_RGB_24502_27919.IIQ,152,21:59:14.208945,2073:79154.208945,-126.889607,51.597094,2917.190 m,-0.36000,0.82000,279.48001,T,400,5.6,1000
21-59-19.208_RGB_24503_27920.IIQ,153,21:59:19.208908,2073:79159.208909,-126.895343,51.597155,2901.800 m,0.62000,-0.02000,281.82001,T,400,5.6,1000
21-59-24.207_RGB_24504_27921.IIQ,154,21:59:24.20759,2073:79164.207591,-126.901125,51.597225,2893.260 m,1.23000,-0.76000,280.76001,T,400,5.6,1000
21-59-29.207_RGB_24505_27922.IIQ,155,21:59:29.207481,2073:79169.207482,-126.906898,51.597285,2891.519 m,2.08000,1.00000,281.51001,T,400,5.6,1000
21-59-34.208_RGB_24506_27923.IIQ,156,21:59:34.208234,2073:79174.208234,-126.912617,51.59737,2894.299 m,2.22000,1.21000,282.10999,T,400,5.6,1000
21-59-39.208_RGB_24507_27924.IIQ,157,21:59:39.208041,2073:79179.208041,-126.918278,51.59748,2901.490 m,2.22000,0.78000,283.17999,T,400,5.6,1000
21-59-44.207_RGB_24508_27925.IIQ,158,21:59:44.207886,2073:79184.207887,-126.923893,51.597611,2913.990 m,1.69000,0.69000,282.42999,T,400,5.6,1000
21-59-49.207_RGB_24509_27926.IIQ,159,21:59:49.207701,2073:79189.207702,-126.929494,51.597749,2924.829 m,0.68000,0.48000,282.84000,T,400,5.6,1000
21-59-54.208_RGB_24510_27927.IIQ,160,21:59:54.208522,2073:79194.208522,-126.935128,51.597906,2930.199 m,-0.22000,1.84000,283.31000,T,400,5.6,1000
21-59-59.208_RGB_24511_27928.IIQ,161,21:59:59.208341,2073:79199.208341,-126.940823,51.598105,2931.750 m,-0.64000,0.63000,283.67999,T,400,5.6,1000
22-00-04.208_RGB_24512_27929.IIQ,162,22:00:04.208161,2073:79204.208161,-126.946594,51.598334,2930.010 m,-0.86000,0.09000,283.85001,T,400,5.6,1000
22-00-09.208_RGB_24513_27930.IIQ,163,22:00:09.208733,2073:79209.208733,-126.952449,51.59858,2922.599 m,-0.92000,0.11000,283.79999,T,400,5.6,1000
22-00-14.208_RGB_24514_27931.IIQ,164,22:00:14.208801,2073:79214.208802,-126.958382,51.598832,2912.549 m,-0.55000,-1.90000,283.57001,T,320,5.6,1000
22-00-19.208_RGB_24515_27932.IIQ,165,22:00:19.208299,2073:79219.208299,-126.964378,51.599032,2903.970 m,0.12000,-0.99000,281.79001,T,250,5.6,1000
22-00-24.208_RGB_24516_27933.IIQ,166,22:00:24.208448,2073:79224.208449,-126.970386,51.599187,2896.900 m,1.02000,-0.32000,282.19000,T,250,5.6,1000
22-00-29.208_RGB_24517_27934.IIQ,167,22:00:29.208857,2073:79229.208857,-126.976358,51.599296,2895.799 m,1.58000,-1.93000,281.01999,T,250,5.6,1000
22-00-34.208_RGB_24518_27935.IIQ,168,22:00:34.20809,2073:79234.20809,-126.98227,51.599344,2899.199 m,1.64000,1.79000,281.26999,T,320,5.6,1000
22-00-39.208_RGB_24519_27936.IIQ,169,22:00:39.208421,2073:79239.208421,-126.988093,51.599424,2907.550 m,1.71000,0.93000,282.09000,T,400,5.6,1000
22-00-44.208_RGB_24520_27937.IIQ,170,22:00:44.208738,2073:79244.208738,-126.993825,51.599531,2917.360 m,1.35000,0.56000,282.98999,T,400,5.6,1000
22-00-49.208_RGB_24521_27938.IIQ,171,22:00:49.208559,2073:79249.20856,-126.999497,51.59966,2924.429 m,0.85000,0.64000,284.03000,T,400,5.6,1000
22-00-54.209_RGB_24522_27939.IIQ,172,22:00:54.209379,2073:79254.209379,-127.00515,51.599805,2927.260 m,0.49000,0.10000,283.47000,T,400,5.6,1000
22-00-59.208_RGB_24523_27940.IIQ,173,22:00:59.208545,2073:79259.208545,-127.010814,51.599951,2926.230 m,0.22000,0.25000,283.69000,T,400,5.6,1000
22-01-04.209_RGB_24524_27941.IIQ,174,22:01:04.209023,2073:79264.209023,-127.016498,51.600106,2923.800 m,0.35000,-0.90000,283.53000,T,400,5.6,1000
22-01-09.208_RGB_24525_27942.IIQ,175,22:01:09.208111,2073:79269.208112,-127.022186,51.600246,2922.510 m,0.20000,-0.32000,283.19000,T,400,5.6,1000
22-01-14.208_RGB_24526_27943.IIQ,176,22:01:14.208666,2073:79274.208666,-127.027873,51.600379,2923.080 m,0.18000,-0.21000,283.14001,T,400,5.6,1000
22-01-19.209_RGB_24527_27944.IIQ,177,22:01:19.209484,2073:79279.209485,-127.033558,51.600503,2924.539 m,0.31000,-0.71000,282.91000,T,400,5.6,1000
22-01-24.208_RGB_24528_27945.IIQ,178,22:01:24.208461,2073:79284.208461,-127.039234,51.600603,2927.409 m,0.24000,-0.55000,282.85001,T,400,5.6,1000
22-01-29.208_RGB_24529_27946.IIQ,179,22:01:29.208131,2073:79289.208131,-127.044906,51.600681,2928.569 m,0.16000,-0.05000,282.37000,T,400,5.6,1000
22-01-34.208_RGB_24530_27947.IIQ,180,22:01:34.208033,2073:79294.208033,-127.050577,51.600766,2926.139 m,0.06000,0.87000,283.07001,T,400,5.6,1000
22-01-39.209_RGB_24531_27948.IIQ,181,22:01:39.209778,2073:79299.209778,-127.056246,51.600888,2922.990 m,0.09000,0.48000,283.20999,T,400,5.6,1000
22-01-44.208_RGB_24532_27949.IIQ,182,22:01:44.208624,2073:79304.208625,-127.061914,51.60103,2919.869 m,0.12000,0.05000,283.69000,T,400,5.6,1000
22-01-49.208_RGB_24533_27950.IIQ,183,22:01:49.208419,2073:79309.208419,-127.067581,51.60118,2917.689 m,0.21000,-0.28000,283.51001,T,400,5.6,1000
22-01-54.209_RGB_24534_27951.IIQ,184,22:01:54.209245,2073:79314.209245,-127.073241,51.601323,2916.409 m,0.29000,0.08000,283.67001,T,400,5.6,1000
22-01-59.209_RGB_24535_27952.IIQ,185,22:01:59.209061,2073:79319.209061,-127.078887,51.601465,2916.789 m,0.33000,0.11000,283.23999,T,400,5.6,1000
22-02-04.207_RGB_24536_27953.IIQ,186,22:02:04.207886,2073:79324.207886,-127.084518,51.601613,2918.139 m,0.30000,0.49000,283.35999,T,400,5.6,1000
22-02-09.208_RGB_24537_27954.IIQ,187,22:02:09.208702,2073:79329.208703,-127.090134,51.601775,2919.250 m,0.28000,-0.11000,283.53000,T,400,5.6,1000
22-02-14.208_RGB_24538_27955.IIQ,188,22:02:14.208526,2073:79334.208526,-127.095743,51.601939,2919.210 m,0.30000,-0.09000,283.39001,T,400,5.6,1000
22-02-19.209_RGB_24539_27956.IIQ,189,22:02:19.209346,2073:79339.209346,-127.101345,51.602104,2918.059 m,0.33000,-0.22000,283.34000,T,400,5.6,1000
22-02-24.209_RGB_24540_27957.IIQ,190,22:02:24.209168,2073:79344.209168,-127.106937,51.602266,2917.050 m,0.40000,0.09000,283.17999,T,400,5.6,1000
22-02-29.208_RGB_24541_27958.IIQ,191,22:02:29.208991,2073:79349.208991,-127.112517,51.602428,2915.949 m,0.30000,-0.27000,283.23001,T,400,5.6,1000
22-02-34.208_RGB_24542_27959.IIQ,192,22:02:34.208406,2073:79354.208406,-127.11809,51.602584,2914.889 m,0.58000,-0.29000,282.95999,T,400,5.6,1000
22-02-39.208_RGB_24543_27960.IIQ,193,22:02:39.208633,2073:79359.208634,-127.123661,51.602728,2914.190 m,0.50000,0.43000,281.75000,T,320,5.6,1000
22-02-44.208_RGB_24544_27961.IIQ,194,22:02:44.208461,2073:79364.208461,-127.129204,51.602887,2916.289 m,0.72000,0.58000,282.29001,T,250,5.6,1000
22-02-49.209_RGB_24545_27962.IIQ,195,22:02:49.209279,2073:79369.20928,-127.134681,51.603086,2917.159 m,0.72000,-0.20000,282.85001,T,250,5.6,1000
22-02-54.209_RGB_24546_27963.IIQ,196,22:02:54.209535,2073:79374.209536,-127.14013,51.603297,2920.170 m,0.70000,-0.72000,282.85001,T,250,5.6,1000
22-02-59.208_RGB_24547_27964.IIQ,197,22:02:59.208924,2073:79379.208924,-127.145558,51.603488,2922.049 m,0.50000,-0.14000,282.26999,T,320,5.6,1000
22-03-04.208_RGB_24548_27965.IIQ,198,22:03:04.208104,2073:79384.208104,-127.150947,51.603658,2923.339 m,0.70000,0.47000,282.07999,T,320,5.6,1000
22-03-09.208_RGB_24549_27966.IIQ,199,22:03:09.208562,2073:79389.208563,-127.156301,51.603833,2924.599 m,0.53000,0.47000,283.09000,T,320,5.6,1000
22-03-14.208_RGB_24550_27967.IIQ,200,22:03:14.20867,2073:79394.20867,-127.161629,51.604011,2923.819 m,0.70000,-1.78000,281.64999,T,250,5.6,1000
22-03-19.209_RGB_24551_27968.IIQ,201,22:03:19.209203,2073:79399.209203,-127.166946,51.604124,2920.949 m,0.68000,-0.51000,280.79001,T,200,5.6,1000
22-03-24.208_RGB_24552_27969.IIQ,202,22:03:24.208236,2073:79404.208237,-127.172251,51.604185,2918.720 m,0.80000,-0.40000,280.51001,T,160,5.6,1000
22-03-29.209_RGB_24553_27970.IIQ,203,22:03:29.209851,2073:79409.209852,-127.177544,51.604232,2915.869 m,0.76000,-0.02000,280.01001,T,160,5.6,1000
22-03-34.208_RGB_24554_27971.IIQ,204,22:03:34.208798,2073:79414.208799,-127.182821,51.604267,2916.000 m,0.90000,-0.42000,280.10999,T,200,5.6,1000
22-03-39.209_RGB_24555_27972.IIQ,205,22:03:39.209495,2073:79419.209495,-127.188082,51.604293,2919.370 m,0.88000,0.14000,279.85001,T,250,5.6,1000
22-03-44.209_RGB_24556_27973.IIQ,206,22:03:44.209373,2073:79424.209374,-127.193334,51.604311,2923.570 m,0.77000,-0.02000,279.98999,T,400,5.6,1000
22-03-49.209_RGB_24557_27974.IIQ,207,22:03:49.20914,2073:79429.20914,-127.198596,51.604318,2927.619 m,0.56000,-0.11000,280.14001,T,400,5.6,1000
22-03-54.216_RGB_24558_27975.IIQ,208,22:03:54.216969,2073:79434.216969,-127.203906,51.604303,2930.570 m,0.19000,-0.87000,279.81000,T,400,5.6,1000
22-03-59.209_RGB_24559_27976.IIQ,209,22:03:59.20978,2073:79439.209781,-127.20927,51.604258,2929.860 m,-0.07000,-0.33000,279.29001,T,400,5.6,1000
22-04-04.209_RGB_24560_27977.IIQ,210,22:04:04.209604,2073:79444.209604,-127.214718,51.604191,2927.080 m,0.03000,-0.65000,278.57001,T,400,5.6,1000
22-04-09.209_RGB_24561_27978.IIQ,211,22:04:09.209424,2073:79449.209424,-127.220244,51.604097,2921.530 m,1.11000,-6.08000,278.29001,T,400,5.6,1000
22-18-30.329_RGB_24562_27980.IIQ,213,22:18:30.329738,2073:80310.329738,-126.740768,51.603869,2947.759 m,0.88000,-17.85000,292.23001,T,400,5.6,1000
22-18-35.329_RGB_24563_27981.IIQ,214,22:18:35.329517,2073:80315.329517,-126.746287,51.604159,2943.879 m,0.15000,-1.24000,281.22000,T,400,5.6,1000
22-18-40.330_RGB_24564_27982.IIQ,215,22:18:40.330298,2073:80320.330299,-126.751988,51.604252,2936.070 m,-0.18000,1.50000,282.42999,T,400,5.6,1000
22-18-45.330_RGB_24565_27983.IIQ,216,22:18:45.330084,2073:80325.330084,-126.757763,51.604389,2930.289 m,-0.75000,1.27000,281.91000,T,400,5.6,1000
22-18-50.330_RGB_24566_27984.IIQ,217,22:18:50.330856,2073:80330.330856,-126.763608,51.604552,2922.840 m,-0.32000,1.25000,280.32001,T,400,5.6,1000
22-18-55.329_RGB_24567_27985.IIQ,218,22:18:55.329668,2073:80335.329668,-126.769503,51.604744,2917.360 m,0.18000,0.90000,280.29001,T,320,5.6,1000
22-19-00.330_RGB_24568_27986.IIQ,219,22:19:00.330423,2073:80340.330424,-126.775415,51.604961,2914.189 m,0.46000,0.71000,280.25000,T,250,5.6,1000
22-19-05.330_RGB_24569_27987.IIQ,220,22:19:05.330205,2073:80345.330206,-126.781325,51.605203,2911.549 m,0.71000,0.44000,281.13000,T,250,5.6,1000
22-19-10.330_RGB_24570_27988.IIQ,221,22:19:10.330988,2073:80350.330989,-126.787229,51.605456,2909.010 m,1.10000,-0.56000,281.82001,T,320,5.6,1000
22-19-15.329_RGB_24571_27989.IIQ,222,22:19:15.329769,2073:80355.32977,-126.793138,51.605653,2904.900 m,1.76000,-2.86000,280.73001,T,400,5.6,1000
22-19-20.330_RGB_24572_27990.IIQ,223,22:19:20.330549,2073:80360.330549,-126.799056,51.605733,2900.269 m,1.84000,-0.34000,279.23999,T,400,5.6,1000
22-19-25.330_RGB_24573_27991.IIQ,224,22:19:25.330331,2073:80365.330331,-126.804938,51.605723,2903.129 m,2.82000,-0.21000,277.23999,T,400,5.6,1000
22-19-30.330_RGB_24574_27992.IIQ,225,22:19:30.330109,2073:80370.33011,-126.81072,51.605674,2907.949 m,3.17000,0.88000,278.07999,T,400,6.3,1000
22-19-35.329_RGB_24575_27993.IIQ,226,22:19:35.329821,2073:80375.329821,-126.816394,51.605654,2914.079 m,3.30000,1.64000,279.10999,T,400,8.0,1250
22-19-40.330_RGB_24576_27994.IIQ,227,22:19:40.330606,2073:80380.330606,-126.821971,51.605688,2921.730 m,3.40000,2.30000,279.92001,T,400,8.0,1250
22-19-45.330_RGB_24577_27995.IIQ,228,22:19:45.330386,2073:80385.330386,-126.827463,51.605775,2929.849 m,3.52000,1.53000,281.14999,T,400,8.0,1250
22-19-50.330_RGB_24578_27996.IIQ,229,22:19:50.330237,2073:80390.330237,-126.832887,51.605908,2938.819 m,2.92000,2.26000,282.70999,T,400,5.6,1000
22-19-55.330_RGB_24579_27997.IIQ,230,22:19:55.330017,2073:80395.330017,-126.838292,51.606094,2939.929 m,-0.07000,1.66000,283.14001,T,400,5.6,1000
22-20-00.330_RGB_24580_27998.IIQ,231,22:20:00.330801,2073:80400.330801,-126.84381,51.606337,2934.329 m,0.06000,1.02000,283.32999,T,400,5.6,1000
22-20-05.330_RGB_24581_27999.IIQ,232,22:20:05.330585,2073:80405.330585,-126.849441,51.606614,2932.820 m,0.13000,-0.78000,283.32999,T,400,5.6,1000
22-20-10.330_RGB_24582_28000.IIQ,233,22:20:10.330365,2073:80410.330365,-126.855178,51.606873,2932.460 m,-0.14000,-0.67000,283.95001,T,400,5.6,1000
22-20-15.331_RGB_24583_28001.IIQ,234,22:20:15.331149,2073:80415.331149,-126.861021,51.607123,2931.409 m,-0.38000,-0.59000,283.04001,T,400,5.6,1000
22-20-20.330_RGB_24584_28002.IIQ,235,22:20:20.330929,2073:80420.330929,-126.866965,51.607332,2932.279 m,0.93000,-0.54000,281.54999,T,250,5.6,1000
22-20-25.330_RGB_24585_28003.IIQ,236,22:20:25.330707,2073:80425.330707,-126.872948,51.607487,2935.649 m,0.83000,-0.63000,280.75000,T,250,5.6,1000
22-20-30.330_RGB_24586_28004.IIQ,237,22:20:30.330491,2073:80430.330491,-126.878937,51.607615,2935.369 m,0.84000,-0.08000,280.63000,T,320,5.6,1000
22-20-35.331_RGB_24587_28005.IIQ,238,22:20:35.331271,2073:80435.331271,-126.884927,51.60773,2931.650 m,0.92000,0.36000,279.92999,T,320,5.6,1000
22-20-40.331_RGB_24588_28006.IIQ,239,22:20:40.331055,2073:80440.331055,-126.890909,51.607843,2924.569 m,1.01000,-0.40000,279.85999,T,400,5.6,1000
22-20-45.330_RGB_24589_28007.IIQ,240,22:20:45.330839,2073:80445.330839,-126.896882,51.60794,2918.500 m,1.10000,-0.54000,279.85999,T,400,5.6,1000
22-20-50.330_RGB_24590_28008.IIQ,241,22:20:50.330619,2073:80450.330619,-126.902843,51.608011,2914.320 m,1.23000,0.76000,279.00000,T,400,5.6,1000
22-20-55.330_RGB_24591_28009.IIQ,242,22:20:55.330405,2073:80455.330405,-126.908784,51.608091,2910.390 m,1.34000,0.14000,280.07001,T,400,5.6,1000
22-21-00.331_RGB_24592_28010.IIQ,243,22:21:00.331179,2073:80460.331179,-126.914697,51.608193,2909.480 m,1.21000,1.50000,280.26001,T,400,5.6,1000
22-21-05.331_RGB_24593_28011.IIQ,244,22:21:05.331,2073:80465.331,-126.920576,51.608331,2909.639 m,1.22000,0.61000,281.00000,T,400,5.6,1000
22-21-10.330_RGB_24594_28012.IIQ,245,22:21:10.330746,2073:80470.330747,-126.926428,51.608488,2911.640 m,1.74000,-0.44000,281.17001,T,400,5.6,1000
22-21-15.330_RGB_24595_28013.IIQ,246,22:21:15.330629,2073:80475.33063,-126.932248,51.608631,2914.769 m,1.81000,0.22000,280.72000,T,400,5.6,1000
22-21-20.331_RGB_24596_28014.IIQ,247,22:21:20.331317,2073:80480.331318,-126.938038,51.608764,2917.949 m,1.81000,-0.11000,280.73999,T,400,5.6,1000
22-21-25.331_RGB_24597_28015.IIQ,248,22:21:25.331273,2073:80485.331273,-126.943801,51.608879,2920.519 m,1.86000,-0.57000,280.73001,T,400,5.6,1000
22-21-30.331_RGB_24598_28016.IIQ,249,22:21:30.331883,2073:80490.331883,-126.949545,51.608959,2922.890 m,2.00000,-0.80000,280.07999,T,400,5.6,1000
22-21-35.330_RGB_24599_28017.IIQ,250,22:21:35.330665,2073:80495.330665,-126.955273,51.609001,2924.600 m,1.78000,1.21000,279.28000,T,400,5.6,1000
22-21-40.331_RGB_24600_28018.IIQ,251,22:21:40.33137,2073:80500.331371,-126.960985,51.609076,2924.920 m,1.76000,2.51000,281.07999,T,400,8.0,1250
22-21-45.330_RGB_24601_28019.IIQ,252,22:21:45.330956,2073:80505.330956,-126.966663,51.609233,2925.739 m,1.88000,0.89000,281.79001,T,400,8.0,2500
22-21-50.330_RGB_24602_28020.IIQ,253,22:21:50.330736,2073:80510.330736,-126.972325,51.609423,2923.960 m,1.83000,0.35000,282.25000,T,400,8.0,2500
22-21-55.331_RGB_24603_28021.IIQ,254,22:21:55.331548,2073:80515.331548,-126.977985,51.609619,2920.760 m,1.78000,0.47000,282.57001,T,400,8.0,2000
22-22-00.330_RGB_24604_28022.IIQ,255,22:22:00.330574,2073:80520.330574,-126.983634,51.609809,2919.670 m,1.82000,-0.08000,281.60001,T,400,7.1,1000
22-22-05.331_RGB_24605_28023.IIQ,256,22:22:05.331353,2073:80525.331354,-126.989274,51.609991,2920.929 m,1.82000,-0.65000,282.54999,T,400,5.6,1000
22-22-10.330_RGB_24606_28024.IIQ,257,22:22:10.33066,2073:80530.330661,-126.994906,51.610145,2924.390 m,1.76000,-0.85000,281.84000,T,400,5.6,1000
22-22-15.331_RGB_24607_28025.IIQ,258,22:22:15.331925,2073:80535.331925,-127.000535,51.610257,2929.659 m,1.77000,0.04000,281.29999,T,400,5.6,1000
22-22-20.331_RGB_24608_28026.IIQ,259,22:22:20.331716,2073:80540.331716,-127.006152,51.610344,2934.710 m,1.81000,0.41000,280.60999,T,400,5.6,1000
22-22-25.331_RGB_24609_28027.IIQ,260,22:22:25.331493,2073:80545.331493,-127.01175,51.610455,2938.980 m,1.74000,3.14000,283.12000,T,400,5.6,1000
22-22-30.331_RGB_24610_28028.IIQ,261,22:22:30.331277,2073:80550.331278,-127.017308,51.610653,2942.540 m,1.81000,1.22000,285.14999,T,400,5.6,1000
22-22-35.331_RGB_24611_28029.IIQ,262,22:22:35.331063,2073:80555.331064,-127.022836,51.610887,2947.210 m,1.82000,0.60000,285.07999,T,400,5.6,1000
22-22-40.331_RGB_24612_28030.IIQ,263,22:22:40.331841,2073:80560.331842,-127.02834,51.611123,2952.389 m,1.79000,-0.69000,285.25000,T,400,5.6,1000
22-22-45.331_RGB_24613_28031.IIQ,264,22:22:45.331623,2073:80565.331623,-127.033832,51.611328,2958.010 m,1.76000,-0.28000,284.42001,T,400,5.6,1000
22-22-50.330_RGB_24614_28032.IIQ,265,22:22:50.330405,2073:80570.330405,-127.039313,51.611506,2962.989 m,1.44000,0.60000,284.51999,T,400,5.6,1000
22-22-55.332_RGB_24615_28033.IIQ,266,22:22:55.33219,2073:80575.33219,-127.044801,51.611687,2962.940 m,1.14000,0.42000,284.91000,T,400,5.6,1000
22-23-00.330_RGB_24616_28034.IIQ,267,22:23:00.330971,2073:80580.330972,-127.050318,51.611863,2960.589 m,1.14000,-0.75000,283.14999,T,400,5.6,1000
22-23-05.331_RGB_24617_28035.IIQ,268,22:23:05.331749,2073:80585.33175,-127.055886,51.611998,2958.609 m,0.82000,-0.92000,283.37000,T,400,5.6,1000
22-23-10.331_RGB_24618_28036.IIQ,269,22:23:10.331533,2073:80590.331533,-127.061496,51.612091,2958.039 m,0.89000,-0.90000,281.76999,T,400,5.6,1000
22-23-15.331_RGB_24619_28037.IIQ,270,22:23:15.331357,2073:80595.331357,-127.067133,51.61216,2959.579 m,0.89000,-0.23000,281.14999,T,400,5.6,1000
22-23-20.331_RGB_24620_28038.IIQ,271,22:23:20.331168,2073:80600.331169,-127.072777,51.612231,2962.329 m,-0.35000,0.97000,282.23001,T,400,5.6,1000
22-23-25.331_RGB_24621_28039.IIQ,272,22:23:25.331881,2073:80605.331881,-127.078445,51.612346,2958.220 m,-0.45000,0.62000,282.81000,T,400,5.6,1000
22-23-30.330_RGB_24622_28040.IIQ,273,22:23:30.33066,2073:80610.330661,-127.084164,51.612495,2952.519 m,-0.37000,0.26000,282.76001,T,400,5.6,1000
22-23-35.331_RGB_24623_28041.IIQ,274,22:23:35.331439,2073:80615.33144,-127.089923,51.612659,2947.000 m,-0.01000,0.19000,283.00000,T,400,5.6,1000
22-23-40.331_RGB_24624_28042.IIQ,275,22:23:40.331451,2073:80620.331451,-127.095697,51.612831,2942.470 m,0.58000,-0.14000,282.64001,T,400,5.6,1000
22-23-45.332_RGB_24625_28043.IIQ,276,22:23:45.332007,2073:80625.332007,-127.101461,51.612999,2938.769 m,0.86000,0.21000,282.91000,T,400,5.6,1000
22-23-50.331_RGB_24626_28044.IIQ,277,22:23:50.331787,2073:80630.331787,-127.107186,51.613169,2936.399 m,1.08000,0.67000,283.01999,T,400,5.6,1000
22-23-55.330_RGB_24627_28045.IIQ,278,22:23:55.330568,2073:80635.330569,-127.112858,51.613343,2937.369 m,1.76000,-1.77000,282.89001,T,400,5.6,1000
22-24-00.331_RGB_24628_28046.IIQ,279,22:24:00.331734,2073:80640.331734,-127.118476,51.61347,2946.539 m,1.21000,1.78000,282.29001,T,400,5.6,1000
22-24-05.331_RGB_24629_28047.IIQ,280,22:24:05.331133,2073:80645.331134,-127.124003,51.613611,2957.379 m,0.89000,1.12000,281.98001,T,400,5.6,1000
22-24-10.331_RGB_24630_28048.IIQ,281,22:24:10.331915,2073:80650.331916,-127.129461,51.613772,2964.920 m,0.25000,-0.77000,283.10001,T,400,5.6,1000
22-24-15.331_RGB_24631_28049.IIQ,282,22:24:15.331697,2073:80655.331698,-127.134907,51.613941,2968.930 m,-0.60000,0.26000,282.60001,T,400,5.6,1000
22-24-20.332_RGB_24632_28050.IIQ,283,22:24:20.332485,2073:80660.332485,-127.140386,51.614126,2967.109 m,-0.47000,-0.08000,283.45999,T,400,5.6,1000
22-24-25.332_RGB_24633_28051.IIQ,284,22:24:25.332261,2073:80665.332261,-127.145921,51.614276,2963.059 m,-0.59000,-1.61000,280.41000,T,400,5.6,1000
22-24-30.331_RGB_24634_28052.IIQ,285,22:24:30.331044,2073:80670.331044,-127.151517,51.614358,2958.400 m,-0.64000,0.48000,280.54999,T,400,5.6,1000
22-24-35.331_RGB_24635_28053.IIQ,286,22:24:35.331823,2073:80675.331823,-127.15713,51.614459,2952.869 m,-0.78000,0.23000,280.97000,T,400,5.6,1000
22-24-40.331_RGB_24636_28054.IIQ,287,22:24:40.331604,2073:80680.331604,-127.162739,51.614581,2947.930 m,-0.09000,-0.84000,281.35999,T,320,5.6,1000
22-24-45.332_RGB_24637_28055.IIQ,288,22:24:45.332387,2073:80685.332387,-127.168329,51.614669,2946.400 m,0.40000,-0.57000,280.78000,T,200,5.6,1000
22-24-50.331_RGB_24638_28056.IIQ,289,22:24:50.331172,2073:80690.331172,-127.17387,51.614726,2945.179 m,0.53000,-0.82000,280.69000,T,200,5.6,1000
22-24-55.332_RGB_24639_28057.IIQ,290,22:24:55.332957,2073:80695.332958,-127.179365,51.614769,2945.150 m,0.83000,0.92000,279.95999,T,200,5.6,1000
22-25-00.331_RGB_24640_28058.IIQ,291,22:25:00.331743,2073:80700.331743,-127.184786,51.61482,2947.449 m,0.82000,1.49000,280.60999,T,400,5.6,1000
22-25-05.331_RGB_24641_28059.IIQ,292,22:25:05.331527,2073:80705.331527,-127.19014,51.614902,2949.909 m,1.00000,0.85000,281.32001,T,400,5.6,1000
22-25-10.332_RGB_24642_28060.IIQ,293,22:25:10.332311,2073:80710.332311,-127.195436,51.61502,2952.980 m,1.03000,1.40000,282.32999,T,400,5.6,1000
22-25-15.332_RGB_24643_28061.IIQ,294,22:25:15.332106,2073:80715.332107,-127.200689,51.615164,2956.070 m,1.10000,-0.33000,281.69000,T,400,5.6,1000
22-25-20.331_RGB_24644_28062.IIQ,295,22:25:20.331875,2073:80720.331875,-127.205933,51.615305,2960.630 m,0.42000,-0.85000,282.82001,T,400,5.6,1000
22-25-25.331_RGB_24645_28063.IIQ,296,22:25:25.331657,2073:80725.331658,-127.211202,51.615426,2965.050 m,0.45000,-0.95000,282.37000,T,400,5.6,1000
22-25-30.332_RGB_24646_28064.IIQ,297,22:25:30.332441,2073:80730.332441,-127.216521,51.615527,2966.159 m,-0.17000,-0.84000,282.26001,T,400,5.6,1000
22-25-35.332_RGB_24647_28065.IIQ,298,22:25:35.332223,2073:80735.332223,-127.221918,51.615608,2964.230 m,-0.47000,0.30000,281.59000,T,400,5.6,1000
22-25-40.332_RGB_24648_28066.IIQ,299,22:25:40.332158,2073:80740.332159,-127.227393,51.615691,2956.780 m,-0.58000,0.95000,281.75000,T,400,5.6,1000
22-25-45.331_RGB_24649_28067.IIQ,300,22:25:45.33198,2073:80745.33198,-127.232922,51.615805,2946.909 m,-0.43000,0.38000,281.94000,T,400,5.6,1000
22-25-50.331_RGB_24650_28068.IIQ,301,22:25:50.331802,2073:80750.331803,-127.238474,51.615954,2941.010 m,-0.06000,1.63000,282.67001,T,400,5.6,1000
22-25-55.332_RGB_24651_28069.IIQ,302,22:25:55.332351,2073:80755.332351,-127.244008,51.616127,2939.210 m,0.62000,0.88000,282.17001,T,400,5.6,1000
22-26-00.332_RGB_24652_28070.IIQ,303,22:26:00.332137,2073:80760.332137,-127.24951,51.616323,2939.369 m,0.77000,1.60000,282.94000,T,400,5.6,1000
22-26-05.331_RGB_24653_28071.IIQ,304,22:26:05.331919,2073:80765.331919,-127.254964,51.616539,2941.989 m,0.87000,1.68000,282.79999,T,400,5.6,1000
22-26-10.332_RGB_24654_28072.IIQ,305,22:26:10.332704,2073:80770.332704,-127.26036,51.616772,2945.079 m,1.10000,-8.04000,281.94000,T,400,5.6,1000
22-26-15.332_RGB_24655_28073.IIQ,306,22:26:15.332488,2073:80775.332488,-127.265779,51.616703,2950.490 m,1.51000,-12.67000,273.20001,T,400,5.6,1000
22-26-20.332_RGB_24656_28074.IIQ,307,22:26:20.332273,2073:80780.332273,-127.271176,51.616133,2957.549 m,1.88000,-11.98000,263.28000,T,400,5.6,1000
22-26-25.332_RGB_24657_28075.IIQ,308,22:26:25.332055,2073:80785.332055,-127.27643,51.615066,2964.800 m,1.14000,-11.42000,253.98000,T,400,5.6,1000
22-26-30.331_RGB_24658_28076.IIQ,309,22:26:30.331835,2073:80790.331835,-127.281431,51.613518,2969.039 m,0.96000,-10.47000,244.21001,T,400,5.6,1000
22-26-35.332_RGB_24659_28077.IIQ,310,22:26:35.33262,2073:80795.33262,-127.286124,51.611571,2969.689 m,0.18000,-6.60000,237.11000,T,400,5.6,1000
22-26-40.332_RGB_24660_28078.IIQ,311,22:26:40.332399,2073:80800.332399,-127.290556,51.609347,2967.190 m,0.17000,-3.22000,231.13000,T,400,5.6,1000
22-26-45.332_RGB_24661_28079.IIQ,312,22:26:45.332183,2073:80805.332183,-127.294808,51.606946,2962.139 m,-0.18000,0.34000,227.52000,T,400,5.6,1000
22-26-50.331_RGB_24662_28080.IIQ,313,22:26:50.331961,2073:80810.331961,-127.299286,51.604689,2956.269 m,-0.13000,25.48000,240.85001,T,400,5.6,1000
22-26-55.332_RGB_24663_28081.IIQ,314,22:26:55.332745,2073:80815.332745,-127.304505,51.603227,2942.920 m,-0.57000,27.54000,261.56000,T,400,5.6,1000
22-27-00.332_RGB_24664_28082.IIQ,315,22:27:00.332529,2073:80820.33253,-127.310093,51.602856,2926.400 m,-1.42000,31.31000,282.57001,T,400,5.6,1000
22-27-05.332_RGB_24665_28083.IIQ,316,22:27:05.332313,2073:80825.332313,-127.315303,51.603755,2909.420 m,-0.80000,29.78000,308.16000,T,400,5.6,1000
22-27-10.332_RGB_24666_28084.IIQ,317,22:27:10.332099,2073:80830.332099,-127.319275,51.605724,2906.400 m,0.13000,27.26000,329.13000,T,400,5.6,1000
22-27-15.332_RGB_24667_28085.IIQ,318,22:27:15.332884,2073:80835.332884,-127.321672,51.608279,2910.029 m,1.56000,23.37000,347.85001,T,400,5.6,1000
22-27-20.332_RGB_24668_28086.IIQ,319,22:27:20.332666,2073:80840.332666,-127.322502,51.610981,2921.179 m,2.13000,28.70000,6.54000,T,400,5.6,1000
22-28-34.921_RGB_24669_28087.IIQ,320,22:28:34.921415,2073:80914.921416,-127.268547,51.62218,2949.349 m,0.28000,0.58000,84.80000,T,400,5.6,1000
22-28-39.922_RGB_24670_28088.IIQ,321,22:28:39.922741,2073:80919.922742,-127.264256,51.622023,2949.559 m,0.29000,0.75000,85.69000,T,400,5.6,1000
22-28-44.921_RGB_24671_28089.IIQ,322,22:28:44.921981,2073:80924.921982,-127.259957,51.621861,2948.529 m,0.01000,0.18000,84.69000,T,400,5.6,1000
22-28-49.922_RGB_24672_28090.IIQ,323,22:28:49.922388,2073:80929.922389,-127.255643,51.621714,2943.419 m,-0.01000,-0.91000,84.57000,T,400,5.6,1000
22-28-54.921_RGB_24673_28091.IIQ,324,22:28:54.921551,2073:80934.921552,-127.251311,51.621603,2936.869 m,0.12000,-0.47000,84.12000,T,400,5.6,1000
22-28-59.922_RGB_24674_28092.IIQ,325,22:28:59.922338,2073:80939.922339,-127.246981,51.621523,2931.530 m,0.58000,-0.35000,84.35000,T,400,5.6,1000
22-29-04.922_RGB_24675_28093.IIQ,326,22:29:04.922118,2073:80944.922119,-127.2427,51.621457,2930.340 m,0.87000,0.50000,82.77000,T,400,5.6,1000
22-29-09.922_RGB_24676_28094.IIQ,327,22:29:09.922674,2073:80949.922675,-127.238488,51.621369,2933.219 m,0.91000,0.57000,83.43000,T,400,5.6,1000
22-29-14.930_RGB_24677_28095.IIQ,328,22:29:14.930684,2073:80954.930684,-127.23433,51.621238,2937.429 m,1.01000,0.78000,83.93000,T,400,5.6,1000
22-29-19.922_RGB_24678_28096.IIQ,329,22:29:19.922317,2073:80959.922317,-127.230233,51.621091,2941.680 m,0.99000,-0.90000,83.54000,T,400,5.6,1000
22-29-24.922_RGB_24679_28097.IIQ,330,22:29:24.922248,2073:80964.922248,-127.226168,51.620978,2945.410 m,0.70000,-0.03000,82.99000,T,400,5.6,1000
22-29-29.922_RGB_24680_28098.IIQ,331,22:29:29.922961,2073:80969.922961,-127.222108,51.62088,2947.099 m,0.52000,0.52000,83.16000,T,400,5.6,1000
22-29-34.922_RGB_24681_28099.IIQ,332,22:29:34.922825,2073:80974.922825,-127.218026,51.620795,2948.130 m,0.25000,0.47000,82.31000,T,400,5.6,1000
22-29-39.921_RGB_24682_28100.IIQ,333,22:29:39.921623,2073:80979.921623,-127.213913,51.620714,2948.920 m,-0.02000,0.37000,83.86000,T,400,5.6,1000
22-29-44.922_RGB_24683_28101.IIQ,334,22:29:44.922432,2073:80984.922432,-127.20976,51.620624,2948.300 m,0.04000,0.53000,82.68000,T,400,5.6,1000
22-29-49.922_RGB_24684_28102.IIQ,335,22:29:49.92225,2073:80989.92225,-127.205553,51.620503,2949.119 m,-0.36000,-0.95000,83.57000,T,400,5.6,1000
22-29-54.922_RGB_24685_28103.IIQ,336,22:29:54.922951,2073:80994.922952,-127.201308,51.620406,2948.449 m,-0.35000,1.30000,82.56000,T,400,5.6,1000
22-29-59.922_RGB_24686_28104.IIQ,337,22:29:59.922892,2073:80999.922892,-127.197018,51.620328,2947.600 m,-0.72000,-0.46000,82.46000,T,400,5.6,1000
22-30-04.922_RGB_24687_28105.IIQ,338,22:30:04.922716,2073:81004.922716,-127.192681,51.620258,2945.039 m,-0.51000,0.37000,82.44000,T,400,5.6,1000
22-30-09.921_RGB_24688_28106.IIQ,339,22:30:09.921535,2073:81009.921535,-127.188288,51.620177,2940.190 m,-0.59000,0.58000,82.70000,T,400,5.6,1000
22-30-14.922_RGB_24689_28107.IIQ,340,22:30:14.922357,2073:81014.922357,-127.183841,51.620083,2933.630 m,-0.46000,0.37000,83.14000,T,400,5.6,1000
22-30-19.922_RGB_24690_28108.IIQ,341,22:30:19.922177,2073:81019.922177,-127.179358,51.619976,2928.050 m,0.22000,0.00000,83.21000,T,400,5.6,1000
22-30-24.922_RGB_24691_28109.IIQ,342,22:30:24.922644,2073:81024.922644,-127.174898,51.619883,2926.279 m,0.79000,-0.35000,82.16000,T,400,5.6,1000
22-30-29.922_RGB_24692_28110.IIQ,343,22:30:29.92282,2073:81029.92282,-127.170497,51.619814,2925.009 m,0.83000,-0.76000,82.88000,T,400,5.6,1000
22-30-34.922_RGB_24693_28111.IIQ,344,22:30:34.92264,2073:81034.922641,-127.166175,51.619747,2927.680 m,1.05000,-0.15000,83.10000,T,320,5.6,1000
22-30-39.922_RGB_24694_28112.IIQ,345,22:30:39.922992,2073:81039.922992,-127.161937,51.619681,2931.920 m,1.04000,0.04000,82.68000,T,250,5.6,1000
22-30-44.923_RGB_24695_28113.IIQ,346,22:30:44.923284,2073:81044.923284,-127.157768,51.619621,2935.880 m,1.26000,1.02000,82.96000,T,250,5.6,1000
22-30-49.922_RGB_24696_28114.IIQ,347,22:30:49.922562,2073:81049.922562,-127.153651,51.619545,2940.259 m,1.09000,-0.03000,82.60000,T,250,5.6,1000
22-30-54.922_RGB_24697_28115.IIQ,348,22:30:54.922932,2073:81054.922933,-127.149568,51.619457,2944.000 m,0.83000,0.80000,83.31000,T,320,5.6,1000
22-30-59.922_RGB_24698_28116.IIQ,349,22:30:59.92213,2073:81059.922131,-127.145502,51.619356,2948.240 m,0.24000,-0.21000,83.52000,T,400,5.6,1000
22-31-04.922_RGB_24699_28117.IIQ,350,22:31:04.922575,2073:81064.922575,-127.141428,51.61925,2951.539 m,-0.19000,1.21000,83.08000,T,400,5.6,1000
22-31-09.923_RGB_24700_28118.IIQ,351,22:31:09.923399,2073:81069.923399,-127.137314,51.619123,2952.460 m,-0.53000,1.71000,84.48000,T,400,5.6,1000
22-31-14.923_RGB_24701_28119.IIQ,352,22:31:14.923217,2073:81074.923218,-127.133151,51.618978,2956.760 m,-0.85000,-0.08000,83.88000,T,400,5.6,1000
22-31-19.923_RGB_24702_28120.IIQ,353,22:31:19.923265,2073:81079.923265,-127.128927,51.618846,2955.000 m,-0.97000,1.64000,84.40000,T,400,5.6,1000
22-31-24.923_RGB_24703_28121.IIQ,354,22:31:24.923865,2073:81084.923865,-127.124631,51.618693,2953.559 m,-0.58000,0.95000,84.72000,T,400,5.6,1000
22-31-29.922_RGB_24704_28122.IIQ,355,22:31:29.922827,2073:81089.922828,-127.120273,51.618543,2949.309 m,-0.89000,-0.34000,83.68000,T,400,5.6,1000
22-31-34.923_RGB_24705_28123.IIQ,356,22:31:34.923504,2073:81094.923504,-127.115883,51.618464,2946.760 m,-0.63000,1.40000,81.98000,T,400,5.6,1000
22-31-39.922_RGB_24706_28124.IIQ,357,22:31:39.922399,2073:81099.9224,-127.111472,51.618396,2939.879 m,-0.89000,0.60000,83.72000,T,400,5.6,1000
22-31-44.923_RGB_24707_28125.IIQ,358,22:31:44.923146,2073:81104.923146,-127.107059,51.618303,2934.319 m,-0.67000,-0.26000,83.95000,T,400,5.6,1000
22-31-49.922_RGB_24708_28126.IIQ,359,22:31:49.92299,2073:81109.92299,-127.1027,51.618215,2930.039 m,-0.21000,-0.87000,83.40000,T,400,5.6,1000
22-31-54.923_RGB_24709_28127.IIQ,360,22:31:54.923792,2073:81114.923792,-127.09842,51.618161,2926.079 m,0.54000,-0.77000,83.54000,T,400,5.6,1000
22-31-59.923_RGB_24710_28128.IIQ,361,22:31:59.923527,2073:81119.923528,-127.094245,51.618128,2925.349 m,0.81000,-0.38000,83.39000,T,400,5.6,1000
22-32-04.923_RGB_24711_28129.IIQ,362,22:32:04.923437,2073:81124.923437,-127.090171,51.618094,2926.699 m,1.34000,0.73000,83.65000,T,400,5.6,1000
22-32-09.923_RGB_24712_28130.IIQ,363,22:32:09.923095,2073:81129.923095,-127.086197,51.61804,2930.659 m,1.44000,0.13000,83.48000,T,400,5.6,1000
22-32-14.923_RGB_24713_28131.IIQ,364,22:32:14.923079,2073:81134.92308,-127.082308,51.617977,2934.670 m,1.26000,0.82000,83.50000,T,400,5.6,1000
22-32-19.922_RGB_24714_28132.IIQ,365,22:32:19.922661,2073:81139.922661,-127.078477,51.61789,2938.030 m,1.21000,0.75000,83.90000,T,400,5.6,1000
22-32-24.923_RGB_24715_28133.IIQ,366,22:32:24.923722,2073:81144.923723,-127.074686,51.617774,2941.589 m,1.02000,0.65000,84.05000,T,400,5.6,1000
22-32-29.922_RGB_24716_28134.IIQ,367,22:32:29.922544,2073:81149.922544,-127.070921,51.617633,2945.179 m,0.81000,0.98000,84.59000,T,400,5.6,1000
22-32-34.923_RGB_24717_28135.IIQ,368,22:32:34.923364,2073:81154.923365,-127.067161,51.617481,2947.369 m,0.49000,-0.53000,83.51000,T,400,5.6,1000
22-32-39.923_RGB_24718_28136.IIQ,369,22:32:39.923185,2073:81159.923186,-127.063395,51.61736,2948.539 m,0.22000,-0.29000,83.04000,T,400,5.6,1000
22-32-44.923_RGB_24719_28137.IIQ,370,22:32:44.923005,2073:81164.923005,-127.059611,51.61726,2945.550 m,-0.15000,-0.01000,82.57000,T,400,5.6,1000
22-32-49.923_RGB_24720_28138.IIQ,371,22:32:49.923355,2073:81169.923355,-127.05579,51.617163,2940.019 m,-0.24000,0.90000,82.78000,T,400,5.6,1000
22-32-54.923_RGB_24721_28139.IIQ,372,22:32:54.923653,2073:81174.923653,-127.051934,51.617056,2932.909 m,-0.03000,-0.98000,83.18000,T,400,5.6,1000
22-32-59.923_RGB_24722_28140.IIQ,373,22:32:59.923479,2073:81179.923479,-127.048068,51.616973,2926.019 m,0.26000,-0.74000,83.29000,T,400,5.6,1000
22-33-04.923_RGB_24723_28141.IIQ,374,22:33:04.923297,2073:81184.923298,-127.04422,51.616928,2922.409 m,0.55000,-0.72000,82.35000,T,400,5.6,1000
22-33-09.923_RGB_24724_28142.IIQ,375,22:33:09.923483,2073:81189.923483,-127.040413,51.616913,2922.970 m,0.94000,0.38000,82.10000,T,400,5.6,1000
22-33-14.923_RGB_24725_28143.IIQ,376,22:33:14.923943,2073:81194.923943,-127.036643,51.616886,2925.870 m,0.98000,1.73000,82.03000,T,400,5.6,1000
22-33-19.923_RGB_24726_28144.IIQ,377,22:33:19.923767,2073:81199.923767,-127.032893,51.616809,2928.500 m,1.04000,1.68000,82.97000,T,400,5.6,1000
22-33-24.923_RGB_24727_28145.IIQ,378,22:33:24.923588,2073:81204.923588,-127.02916,51.616681,2932.940 m,1.22000,0.73000,83.95000,T,400,5.6,1000
22-33-29.923_RGB_24728_28146.IIQ,379,22:33:29.923412,2073:81209.923412,-127.025443,51.616534,2935.949 m,1.24000,-0.18000,83.66000,T,400,5.6,1000
22-33-34.923_RGB_24729_28147.IIQ,380,22:33:34.923227,2073:81214.923227,-127.021736,51.616401,2938.369 m,1.12000,-0.40000,83.16000,T,400,5.6,1000
22-33-39.923_RGB_24730_28148.IIQ,381,22:33:39.923181,2073:81219.923181,-127.018048,51.616295,2940.230 m,1.14000,-0.37000,82.59000,T,400,5.6,1000
22-33-44.923_RGB_24731_28149.IIQ,382,22:33:44.923871,2073:81224.923871,-127.014379,51.616221,2942.660 m,1.17000,-0.52000,81.73000,T,400,5.6,1000
22-33-49.923_RGB_24732_28150.IIQ,383,22:33:49.923752,2073:81229.923752,-127.01073,51.616186,2945.119 m,1.14000,0.03000,80.89000,T,400,5.6,1000
22-33-54.923_RGB_24733_28151.IIQ,384,22:33:54.923515,2073:81234.923515,-127.007083,51.616166,2947.909 m,1.05000,0.88000,80.93000,T,400,5.6,1000
22-33-59.924_RGB_24734_28152.IIQ,385,22:33:59.924308,2073:81239.924308,-127.003422,51.616128,2951.679 m,1.00000,1.64000,81.86000,T,400,5.6,1000
22-34-04.924_RGB_24735_28153.IIQ,386,22:34:04.924159,2073:81244.924159,-126.999749,51.616057,2954.519 m,0.97000,0.09000,81.78000,T,400,5.6,1000
22-34-09.923_RGB_24736_28154.IIQ,387,22:34:09.923985,2073:81249.923985,-126.996069,51.615987,2956.330 m,0.94000,0.60000,81.52000,T,400,5.6,1000
22-34-14.924_RGB_24737_28155.IIQ,388,22:34:14.924803,2073:81254.924804,-126.992378,51.615904,2957.250 m,0.84000,1.17000,83.23000,T,400,5.6,1000
22-34-19.923_RGB_24738_28156.IIQ,389,22:34:19.923624,2073:81259.923624,-126.988687,51.615795,2958.019 m,0.86000,0.95000,83.23000,T,400,5.6,1000
22-34-24.923_RGB_24739_28157.IIQ,390,22:34:24.923446,2073:81264.923446,-126.985004,51.61566,2959.400 m,1.07000,0.67000,83.92000,T,400,5.6,1000
22-34-29.924_RGB_24740_28158.IIQ,391,22:34:29.924268,2073:81269.924269,-126.981334,51.615513,2961.329 m,1.15000,-0.07000,83.51000,T,320,5.6,1000
22-34-34.924_RGB_24741_28159.IIQ,392,22:34:34.924087,2073:81274.924088,-126.977678,51.615375,2962.350 m,1.01000,-0.08000,83.54000,T,250,5.6,1000
22-34-39.923_RGB_24742_28160.IIQ,393,22:34:39.923582,2073:81279.923582,-126.974004,51.615247,2957.480 m,-0.18000,-0.70000,83.06000,T,160,5.6,1000
22-34-44.923_RGB_24743_28161.IIQ,394,22:34:44.923735,2073:81284.923735,-126.970276,51.615154,2950.870 m,0.11000,-0.24000,82.43000,T,100,5.6,1000
22-34-49.924_RGB_24744_28162.IIQ,395,22:34:49.924142,2073:81289.924142,-126.966514,51.61508,2944.619 m,0.38000,-0.51000,82.67000,T,80,5.6,1000
22-34-54.923_RGB_24745_28163.IIQ,396,22:34:54.923376,2073:81294.923376,-126.962752,51.615019,2939.539 m,0.88000,-0.41000,82.28000,T,64,5.6,1000
22-34-59.923_RGB_24746_28164.IIQ,397,22:34:59.923706,2073:81299.923706,-126.959021,51.614981,2936.860 m,1.19000,-0.94000,82.86000,T,64,5.6,1000
22-35-04.923_RGB_24747_28165.IIQ,398,22:35:04.923871,2073:81304.923871,-126.95534,51.614978,2935.380 m,1.55000,0.83000,81.98000,T,400,8.0,1600
22-35-09.923_RGB_24748_28166.IIQ,399,22:35:09.923842,2073:81309.923843,-126.951705,51.614966,2935.340 m,1.87000,2.82000,82.90000,T,400,6.3,1000
22-35-14.924_RGB_24749_28167.IIQ,400,22:35:14.924668,2073:81314.924668,-126.948105,51.614882,2936.809 m,1.85000,1.26000,83.98000,T,400,5.6,1000
22-35-19.924_RGB_24750_28168.IIQ,401,22:35:19.924847,2073:81319.924847,-126.944541,51.614754,2939.349 m,1.89000,1.08000,84.32000,T,400,5.6,1000
22-35-24.923_RGB_24751_28169.IIQ,402,22:35:24.923309,2073:81324.923309,-126.94101,51.614597,2942.289 m,1.92000,0.23000,85.09000,T,400,5.6,1000
22-35-29.924_RGB_24752_28170.IIQ,403,22:35:29.924413,2073:81329.924413,-126.937506,51.614435,2945.949 m,1.84000,-0.58000,84.66000,T,400,5.6,1000
22-35-34.923_RGB_24753_28171.IIQ,404,22:35:34.923955,2073:81334.923955,-126.934026,51.614297,2950.410 m,1.61000,-0.66000,83.15000,T,400,5.6,1000
22-35-39.923_RGB_24754_28172.IIQ,405,22:35:39.92398,2073:81339.92398,-126.930549,51.614189,2953.320 m,0.98000,0.72000,83.06000,T,400,5.6,1000
22-35-44.924_RGB_24755_28173.IIQ,406,22:35:44.924597,2073:81344.924597,-126.927043,51.61408,2955.300 m,0.86000,-0.97000,82.77000,T,400,5.6,1000
22-35-49.923_RGB_24756_28174.IIQ,407,22:35:49.923548,2073:81349.923548,-126.923508,51.613986,2957.069 m,0.53000,1.16000,82.45000,T,400,5.6,1000
22-35-54.923_RGB_24757_28175.IIQ,408,22:35:54.923332,2073:81354.923332,-126.919921,51.613877,2957.269 m,0.18000,-0.68000,82.65000,T,400,5.6,1000
22-35-59.924_RGB_24758_28176.IIQ,409,22:35:59.924119,2073:81359.924119,-126.916284,51.613789,2957.210 m,-0.04000,-0.01000,82.42000,T,400,5.6,1000
22-36-04.924_RGB_24759_28177.IIQ,410,22:36:04.924887,2073:81364.924887,-126.912601,51.613722,2955.490 m,-0.08000,0.47000,82.55000,T,400,5.6,1000
22-36-09.923_RGB_24760_28178.IIQ,411,22:36:09.923722,2073:81369.923722,-126.908871,51.613659,2952.539 m,-0.09000,0.56000,82.06000,T,400,5.6,1000
22-36-14.924_RGB_24761_28179.IIQ,412,22:36:14.924536,2073:81374.924536,-126.905093,51.613585,2949.309 m,-0.06000,0.47000,82.35000,T,400,5.6,1000
