Filename,GPS Event,GPS Time,Weeks:Seconds,Line Number,Number in Line,Longitude,Latitude,Altitude,Pitch,Roll,Yaw,Yaw Type,ISO,Aperture,Shutter Speed 1/#
2096_141153.458422C000615-12-15.458_NIR_65271_124117.IIQ,2,15:12:15.45842,2096:141153.45842,XXXX,XXXX,-123.016389,49.079524,-17.410 m,-0.41000,-0.30000,135.89999,T,50,8.0,800
2096_141163.8659243C000615-12-25.865_NIR_65272_124118.IIQ,3,15:12:25.865924,2096:141163.865924,XXXX,XXXX,-123.016389,49.079524,-17.410 m,-0.42000,-0.30000,135.91000,T,3200,8.0,500
2096_142020.6012434C000615-26-42.601_NIR_65273_124119.IIQ,4,15:26:42.601243,2096:142020.601243,XXXX,XXXX,-123.01745,48.93961,820.220 m,3.46000,-0.64000,185.23000,T,3200,8.0,160
2096_142037.8854815C000615-26-59.885_NIR_65274_124120.IIQ,5,15:26:59.885481,2096:142037.885481,XXXX,XXXX,-123.01926,48.928874,874.870 m,5.98000,1.30000,187.50000,T,3200,7.1,20
2096_142043.0052536C000615-27-05.005_NIR_65275_124121.IIQ,6,15:27:05.005253,2096:142043.005253,XXXX,XXXX,-123.019943,48.925756,890.310 m,4.25000,0.06000,188.25000,T,3200,7.1,20
2096_142048.0089187C000615-27-10.008_NIR_65276_124122.IIQ,7,15:27:10.008918,2096:142048.008918,XXXX,XXXX,-123.020638,48.922666,897.040 m,3.10000,-0.87000,187.78999,T,3200,7.1,20
2096_142081.908558C000615-27-43.908_NIR_65277_124123.IIQ,8,15:27:43.90855,2096:142081.90855,XXXX,XXXX,-123.025464,48.901517,999.809 m,4.43000,-0.07000,186.81000,T,3200,7.1,20
2096_142086.9103349C000615-27-48.910_NIR_65278_124124.IIQ,9,15:27:48.910334,2096:142086.910334,XXXX,XXXX,-123.026073,48.898341,1013.669 m,5.67000,0.08000,186.96001,T,1600,5.6,20
2096_142091.90984810C000615-27-53.909_NIR_65279_124125.IIQ,10,15:27:53.909848,2096:142091.909848,XXXX,XXXX,-123.026686,48.895182,1033.769 m,6.52000,-0.30000,187.55000,T,1600,5.6,20
2096_144875.51577611C000616-14-17.515_NIR_65280_124126.IIQ,11,16:14:17.515776,2096:144875.515776,XXXX,XXXX,-122.763362,50.4054,3606.110 m,5.59000,-0.11000,325.94000,T,1600,5.6,20
2096_144885.68881212C000616-14-27.688_NIR_65281_124127.IIQ,12,16:14:27.688812,2096:144885.688812,XXXX,XXXX,-122.768442,50.410746,3624.159 m,2.73000,-0.43000,324.41000,T,1600,8.0,40
2096_144890.69003713C000616-14-32.690_NIR_65282_124128.IIQ,13,16:14:32.690037,2096:144890.690037,XXXX,XXXX,-122.771111,50.413413,3623.559 m,3.33000,-0.84000,323.57999,T,1600,8.0,125
2096_144895.69079614C000616-14-37.690_NIR_65283_124129.IIQ,14,16:14:37.690796,2096:144895.690796,XXXX,XXXX,-122.773877,50.416104,3626.370 m,3.06000,0.52000,323.42001,T,1600,8.0,250
2096_145569.88315815C000616-25-51.883_NIR_65284_124130.IIQ,15,16:25:51.883158,2096:145569.883158,XXXX,XXXX,-123.127273,50.807238,4534.920 m,1.86000,-0.62000,329.82999,T,1600,8.0,400
2096_145574.88402916C000616-25-56.884_NIR_65285_124131.IIQ,16,16:25:56.884029,2096:145574.884029,XXXX,XXXX,-123.129922,50.81042,4534.239 m,1.88000,-0.54000,329.56000,T,1600,8.0,200
2096_145579.88379517C000616-26-01.883_NIR_65286_124132.IIQ,17,16:26:01.883795,2096:145579.883795,XXXX,XXXX,-123.13258,50.813591,4533.989 m,2.02000,-0.27000,329.62000,T,1600,8.0,160
2096_145584.88379418C000616-26-06.883_NIR_65287_124133.IIQ,18,16:26:06.883794,2096:145584.883794,XXXX,XXXX,-123.135239,50.816753,4534.840 m,2.06000,-0.31000,329.51999,T,1600,8.0,160
2096_145589.88454619C000616-26-11.884_NIR_65288_124134.IIQ,19,16:26:11.884546,2096:145589.884546,XXXX,XXXX,-123.137894,50.819904,4535.420 m,1.90000,0.02000,329.54999,T,1600,8.0,160
2096_145594.88430120C000616-26-16.884_NIR_65289_124135.IIQ,20,16:26:16.884301,2096:145594.884301,XXXX,XXXX,-123.140538,50.823054,4536.370 m,1.90000,-0.02000,329.73999,T,1600,8.0,160
2096_145599.88405321C000616-26-21.884_NIR_65290_124136.IIQ,21,16:26:21.884053,2096:145599.884053,XXXX,XXXX,-123.143172,50.826206,4536.489 m,1.79000,-0.01000,329.91000,T,1250,8.0,160
2096_145604.88363622C000616-26-26.883_NIR_65291_124137.IIQ,22,16:26:26.883636,2096:145604.883636,XXXX,XXXX,-123.145801,50.829363,4535.440 m,1.91000,0.13000,329.95001,T,1000,8.0,160
2096_145609.88255423C000616-26-31.882_NIR_65292_124138.IIQ,23,16:26:31.882554,2096:145609.882554,XXXX,XXXX,-123.148422,50.832522,4534.349 m,2.02000,-0.06000,330.19000,T,800,8.0,160
2096_145614.88430524C000616-26-36.884_NIR_65293_124139.IIQ,24,16:26:36.884305,2096:145614.884305,XXXX,XXXX,-123.151038,50.835679,4534.690 m,2.17000,-0.07000,330.20999,T,500,8.0,160
2096_145619.8840625C000616-26-41.884_NIR_65294_124140.IIQ,25,16:26:41.88406,2096:145619.88406,XXXX,XXXX,-123.153647,50.838826,4534.779 m,2.04000,-0.25000,330.13000,T,400,8.0,160
2096_145625.04966126C000616-26-47.049_NIR_65295_124141.IIQ,26,16:26:47.049661,2096:145625.049661,XXXX,XXXX,-123.156334,50.842072,4534.470 m,2.09000,-0.18000,330.23999,T,320,8.0,160
2096_145630.05142427C000616-26-52.051_NIR_65296_124142.IIQ,27,16:26:52.051424,2096:145630.051424,XXXX,XXXX,-123.158923,50.845213,4534.619 m,2.06000,0.09000,330.38000,T,250,8.0,160
2096_145635.05030128C000616-26-57.050_NIR_65297_124143.IIQ,28,16:26:57.050301,2096:145635.050301,XXXX,XXXX,-123.161497,50.84835,4534.319 m,1.95000,-0.06000,330.35999,T,200,8.0,160
2096_145640.05095829C000616-27-02.050_NIR_65298_124144.IIQ,29,16:27:02.050958,2096:145640.050958,XXXX,XXXX,-123.164066,50.85149,4533.790 m,2.17000,-0.32000,330.44000,T,200,8.0,160
2096_145645.05080230C000616-27-07.050_NIR_65299_124145.IIQ,30,16:27:07.050802,2096:145645.050802,XXXX,XXXX,-123.166632,50.854624,4534.569 m,2.19000,-0.60000,330.53000,T,200,8.0,160
2096_145650.05055731C000616-27-12.050_NIR_65300_124146.IIQ,31,16:27:12.050557,2096:145650.050557,XXXX,XXXX,-123.169204,50.857747,4535.970 m,2.21000,-0.51000,330.50000,T,3200,8.0,1250
2096_145660.05102933C000616-27-22.051_NIR_65301_124147.IIQ,33,16:27:22.051029,2096:145660.051029,XXXX,XXXX,-123.174391,50.863963,4536.060 m,1.93000,-0.74000,329.98999,T,3200,8.0,1250
2096_145665.05081834C000616-27-27.050_NIR_65302_124148.IIQ,34,16:27:27.050818,2096:145665.050818,XXXX,XXXX,-123.177023,50.867061,4534.920 m,2.23000,-0.38000,329.70999,T,2500,8.0,1250
2096_145670.04957935C000616-27-32.049_NIR_65303_124149.IIQ,35,16:27:32.049579,2096:145670.049579,XXXX,XXXX,-123.179662,50.870146,4534.000 m,2.23000,-0.96000,329.85001,T,2000,8.0,1250
2096_145675.05033936C000616-27-37.050_NIR_65304_124150.IIQ,36,16:27:37.050339,2096:145675.050339,XXXX,XXXX,-123.182307,50.873209,4533.710 m,2.43000,-0.61000,329.47000,T,1600,8.0,1250
2096_145680.05010237C000616-27-42.050_NIR_65305_124151.IIQ,37,16:27:42.050102,2096:145680.050102,XXXX,XXXX,-123.184952,50.876247,4534.840 m,2.41000,-0.39000,329.50000,T,1250,8.0,1250
2096_145685.0508738C000616-27-47.050_NIR_65306_124152.IIQ,38,16:27:47.05087,2096:145685.05087,XXXX,XXXX,-123.187592,50.87927,4535.200 m,2.15000,-0.24000,329.44000,T,1250,8.0,1250
2096_145690.05163139C000616-27-52.051_NIR_65307_124153.IIQ,39,16:27:52.051631,2096:145690.051631,XXXX,XXXX,-123.190225,50.882287,4534.659 m,2.36000,-0.19000,329.57999,T,1250,8.0,1250
2096_145695.05131640C000616-27-57.051_NIR_65308_124154.IIQ,40,16:27:57.051316,2096:145695.051316,XXXX,XXXX,-123.192842,50.885299,4535.529 m,2.36000,0.12000,329.82001,T,1250,8.0,1250
2096_145700.05016341C000616-28-02.050_NIR_65309_124155.IIQ,41,16:28:02.050163,2096:145700.050163,XXXX,XXXX,-123.19543,50.888311,4536.689 m,2.29000,0.36000,330.13000,T,1250,8.0,1250
2096_145705.0508242C000616-28-07.050_NIR_65310_124156.IIQ,42,16:28:07.05082,2096:145705.05082,XXXX,XXXX,-123.19799,50.891326,4537.210 m,2.20000,0.13000,330.35999,T,1250,8.0,1250
2096_145792.71580943C000616-29-34.715_NIR_65311_124157.IIQ,43,16:29:34.715809,2096:145792.715809,XXXX,XXXX,-123.241191,50.944153,4535.529 m,2.27000,0.21000,330.44000,T,1600,8.0,1250
2096_145795.71629544C000616-29-37.716_NIR_65312_124158.IIQ,44,16:29:37.716295,2096:145795.716295,XXXX,XXXX,-123.242641,50.945921,4534.829 m,2.24000,0.19000,330.51999,T,1600,8.0,1250
2096_145807.87209345C000616-29-49.872_NIR_65313_124159.IIQ,45,16:29:49.872093,2096:145807.872093,XXXX,XXXX,-123.248437,50.953083,4534.400 m,2.49000,0.10000,330.95001,T,3200,8.0,1250
2096_145810.8709546C000616-29-52.870_NIR_65314_124160.IIQ,46,16:29:52.87095,2096:145810.87095,XXXX,XXXX,-123.249848,50.954847,4534.270 m,2.40000,-0.13000,330.87000,T,3200,8.0,1250
2096_145813.87180747C000616-29-55.871_NIR_65315_124161.IIQ,47,16:29:55.871807,2096:145813.871807,XXXX,XXXX,-123.251258,50.956609,4534.229 m,2.50000,-0.16000,330.95001,T,3200,8.0,1250
2096_145982.72382348C000616-32-44.723_NIR_65316_124162.IIQ,48,16:32:44.723823,2096:145982.723823,XXXX,XXXX,-123.346933,51.033653,4557.599 m,4.93000,-0.30000,244.33000,T,50,8.0,2500
2096_145985.7246849C000616-32-47.724_NIR_65317_124163.IIQ,49,16:32:47.72468,2096:145985.72468,XXXX,XXXX,-123.349536,51.032585,4560.590 m,2.82000,1.94000,244.82001,T,1600,8.0,2500
2096_145988.72370150C000616-32-50.723_NIR_65318_124164.IIQ,50,16:32:50.723701,2096:145988.723701,XXXX,XXXX,-123.352164,51.031528,4555.419 m,0.77000,-0.69000,244.83000,T,1600,8.0,2500
2096_145991.72339651C000616-32-53.723_NIR_65319_124165.IIQ,51,16:32:53.723396,2096:145991.723396,XXXX,XXXX,-123.354839,51.030453,4543.119 m,-0.02000,-0.98000,244.75999,T,3200,8.0,800
2096_145994.72339952C000616-32-56.723_NIR_65320_124166.IIQ,52,16:32:56.723399,2096:145994.723399,XXXX,XXXX,-123.357571,51.02935,4530.170 m,1.22000,-0.48000,244.49001,T,3200,8.0,2000
2096_146021.5440753C000616-33-23.544_NIR_65321_124167.IIQ,53,16:33:23.54407,2096:146021.54407,XXXX,XXXX,-123.381765,51.018552,4524.399 m,5.42000,-0.65000,242.22000,T,3200,8.0,800
2096_146024.54491354C000616-33-26.544_NIR_65322_124168.IIQ,54,16:33:26.544913,2096:146024.544913,XXXX,XXXX,-123.384418,51.017366,4535.229 m,5.51000,1.33000,242.02000,T,3200,8.0,1250
2096_146027.54476655C000616-33-29.544_NIR_65323_124169.IIQ,55,16:33:29.544766,2096:146027.544766,XXXX,XXXX,-123.387039,51.016206,4544.139 m,4.41000,2.40000,243.33000,T,3200,8.0,1250
2096_146030.54461656C000616-33-32.544_NIR_65324_124170.IIQ,56,16:33:32.544616,2096:146030.544616,XXXX,XXXX,-123.389662,51.015076,4547.869 m,3.13000,-0.15000,243.10001,T,3200,8.0,1250
2096_146033.54546757C000616-33-35.545_NIR_65325_124171.IIQ,57,16:33:35.545467,2096:146033.545467,XXXX,XXXX,-123.392287,51.013941,4546.670 m,2.59000,-0.50000,242.75999,T,3200,8.0,1250
2096_146036.54328458C000616-33-38.543_NIR_65326_124172.IIQ,58,16:33:38.543284,2096:146036.543284,XXXX,XXXX,-123.394916,51.012788,4544.180 m,2.66000,-0.64000,242.32001,T,3200,8.0,1250
2096_146039.54516859C000616-33-41.545_NIR_65327_124173.IIQ,59,16:33:41.545168,2096:146039.545168,XXXX,XXXX,-123.397558,51.011621,4542.100 m,2.87000,-0.14000,242.39999,T,3200,8.0,1250
2096_146042.54501760C000616-33-44.545_NIR_65328_124174.IIQ,60,16:33:44.545017,2096:146042.545017,XXXX,XXXX,-123.400209,51.010453,4540.680 m,2.98000,0.00000,242.30000,T,3200,8.0,1250
2096_146045.5448761C000616-33-47.544_NIR_65329_124175.IIQ,61,16:33:47.54487,2096:146045.54487,XXXX,XXXX,-123.402867,51.009285,4539.619 m,3.11000,0.05000,242.46001,T,3200,8.0,1250
2096_146048.54472162C000616-33-50.544_NIR_65330_124176.IIQ,62,16:33:50.544721,2096:146048.544721,XXXX,XXXX,-123.405532,51.008119,4538.819 m,3.28000,-0.57000,242.49001,T,3200,8.0,1250
2096_146051.54457263C000616-33-53.544_NIR_65331_124177.IIQ,63,16:33:53.544572,2096:146051.544572,XXXX,XXXX,-123.408194,51.00695,4538.570 m,3.37000,-0.64000,242.32001,T,3200,8.0,1250
2096_146054.54542164C000616-33-56.545_NIR_65332_124178.IIQ,64,16:33:56.545421,2096:146054.545421,XXXX,XXXX,-123.410842,51.005767,4538.539 m,3.41000,-1.53000,241.77000,T,3200,8.0,1250
2096_146057.5452765C000616-33-59.545_NIR_65333_124179.IIQ,65,16:33:59.54527,2096:146057.54527,XXXX,XXXX,-123.413471,51.004566,4538.619 m,3.37000,1.70000,241.67999,T,3200,8.0,1250
2096_146060.54512266C000616-34-02.545_NIR_65334_124180.IIQ,66,16:34:02.545122,2096:146060.545122,XXXX,XXXX,-123.416111,51.003382,4538.850 m,3.18000,1.70000,242.72000,T,3200,8.0,1250
2096_146063.54497267C000616-34-05.544_NIR_65335_124181.IIQ,67,16:34:05.544972,2096:146063.544972,XXXX,XXXX,-123.418772,51.00222,4538.699 m,2.97000,0.62000,243.00000,T,3200,8.0,1250
2096_146066.54482368C000616-34-08.544_NIR_65336_124182.IIQ,68,16:34:08.544823,2096:146066.544823,XXXX,XXXX,-123.421447,51.001068,4537.719 m,2.81000,0.00000,243.30000,T,3200,8.0,1250
2096_146069.54371969C000616-34-11.543_NIR_65337_124183.IIQ,69,16:34:11.543719,2096:146069.543719,XXXX,XXXX,-123.424132,50.99992,4536.330 m,2.64000,1.71000,243.52000,T,3200,8.0,1250
2096_146072.5455270C000616-34-14.545_NIR_65338_124184.IIQ,70,16:34:14.54552,2096:146072.54552,XXXX,XXXX,-123.426841,50.998783,4534.810 m,2.51000,1.61000,244.11000,T,3200,8.0,1250
2096_146075.54537171C000616-34-17.545_NIR_65339_124185.IIQ,71,16:34:17.545371,2096:146075.545371,XXXX,XXXX,-123.429577,50.997665,4532.920 m,2.31000,1.19000,244.69000,T,3200,8.0,1250
2096_146078.54522272C000616-34-20.545_NIR_65340_124186.IIQ,72,16:34:20.545222,2096:146078.545222,XXXX,XXXX,-123.432339,50.996559,4530.019 m,1.96000,0.26000,245.06000,T,3200,8.0,1250
2096_146081.54515673C000616-34-23.545_NIR_65341_124187.IIQ,73,16:34:23.545156,2096:146081.545156,XXXX,XXXX,-123.435121,50.995451,4525.859 m,1.97000,-0.13000,244.69000,T,3200,8.0,1000
2096_146084.5459274C000616-34-26.545_NIR_65342_124188.IIQ,74,16:34:26.54592,2096:146084.54592,XXXX,XXXX,-123.437906,50.994319,4522.239 m,2.10000,-1.55000,243.81000,T,3200,8.0,1000
2096_146087.54576875C000616-34-29.545_NIR_65343_124189.IIQ,75,16:34:29.545768,2096:146087.545768,XXXX,XXXX,-123.440682,50.993156,4519.240 m,2.06000,-0.14000,243.41000,T,3200,8.0,1000
2096_146090.54462176C000616-34-32.544_NIR_65344_124190.IIQ,76,16:34:32.544621,2096:146090.544621,XXXX,XXXX,-123.443453,50.991971,4516.330 m,2.31000,-0.77000,242.97000,T,2500,8.0,1000
2096_146093.54546977C000616-34-35.545_NIR_65345_124191.IIQ,77,16:34:35.545469,2096:146093.545469,XXXX,XXXX,-123.446218,50.990771,4515.520 m,3.53000,-0.82000,242.55000,T,2500,8.0,1000
2096_146096.54531778C000616-34-38.545_NIR_65346_124192.IIQ,78,16:34:38.545317,2096:146096.545317,XXXX,XXXX,-123.448958,50.989564,4519.560 m,4.61000,-0.89000,242.30000,T,2500,8.0,1000
2096_146099.54416679C000616-34-41.544_NIR_65347_124193.IIQ,79,16:34:41.544166,2096:146099.544166,XXXX,XXXX,-123.451657,50.988362,4526.770 m,5.06000,-0.72000,242.28999,T,2500,8.0,1000
2096_146102.54401780C000616-34-44.544_NIR_65348_124194.IIQ,80,16:34:44.544017,2096:146102.544017,XXXX,XXXX,-123.454314,50.987167,4534.729 m,5.00000,-0.66000,242.23000,T,2500,8.0,1000
2096_146105.54486981C000616-34-47.544_NIR_65349_124195.IIQ,81,16:34:47.544869,2096:146105.544869,XXXX,XXXX,-123.456935,50.985978,4541.029 m,4.22000,-0.26000,242.00999,T,2500,8.0,1000
2096_146108.54471782C000616-34-50.544_NIR_65350_124196.IIQ,82,16:34:50.544717,2096:146108.544717,XXXX,XXXX,-123.459536,50.984794,4543.579 m,3.06000,0.30000,241.98000,T,2500,8.0,1000
2096_146111.54456783C000616-34-53.544_NIR_65351_124197.IIQ,83,16:34:53.544567,2096:146111.544567,XXXX,XXXX,-123.462146,50.98361,4541.539 m,2.07000,-0.16000,242.00999,T,2500,8.0,1000
2096_146114.54541784C000616-34-56.545_NIR_65352_124198.IIQ,84,16:34:56.545417,2096:146114.545417,XXXX,XXXX,-123.464779,50.982419,4537.279 m,2.08000,-0.44000,242.14999,T,3200,8.0,1250
2096_146117.54544685C000616-34-59.545_NIR_65353_124199.IIQ,85,16:34:59.545446,2096:146117.545446,XXXX,XXXX,-123.467429,50.981218,4533.929 m,2.57000,-1.61000,241.64000,T,3200,8.0,800
XXX_XXXXXX.XXXXXXEID-XXC0006XX-XX-XX.XXX_NIR_65354_124200.IIQ,0,XX:XX:XX.XXXXXX,XXX:XXXXXX.XXXXXX,XXXX,XXXX,,,,,,,,3200,8.0,1250
2096_146123.54497286C000616-35-05.544_NIR_65355_124201.IIQ,86,16:35:05.544972,2096:146123.544972,XXXX,XXXX,-123.472723,50.978762,4533.199 m,2.49000,0.00000,241.55000,T,3200,8.0,800
2096_146126.5448287C000616-35-08.544_NIR_65356_124202.IIQ,87,16:35:08.54482,2096:146126.54482,XXXX,XXXX,-123.47539,50.977538,4531.180 m,1.71000,-0.02000,241.73000,T,3200,8.0,1250
2096_146129.54467188C000616-35-11.544_NIR_65357_124203.IIQ,88,16:35:11.544671,2096:146129.544671,XXXX,XXXX,-123.47808,50.976309,4526.829 m,1.59000,0.11000,241.92999,T,3200,8.0,800
2096_146132.54520789C000616-35-14.545_NIR_65358_124204.IIQ,89,16:35:14.545207,2096:146132.545207,XXXX,XXXX,-123.480789,50.975075,4524.710 m,3.67000,-0.48000,241.64999,T,3200,8.0,1250
2096_146135.5450690C000616-35-17.545_NIR_65359_124205.IIQ,90,16:35:17.54506,2096:146135.54506,XXXX,XXXX,-123.483479,50.97384,4530.619 m,5.34000,-0.97000,241.71001,T,3200,8.0,800
2096_146140.54904491C000616-35-22.549_NIR_65360_124206.IIQ,91,16:35:22.549044,2096:146140.549044,XXXX,XXXX,-123.487886,50.971803,4542.769 m,2.83000,1.66000,242.00999,T,3200,8.0,1250
2096_146143.549992C000616-35-25.549_NIR_65361_124207.IIQ,92,16:35:25.5499,2096:146143.5499,XXXX,XXXX,-123.490534,50.970602,4542.800 m,3.06000,0.40000,242.30000,T,3200,8.0,800
2096_146146.54976593C000616-35-28.549_NIR_65362_124208.IIQ,93,16:35:28.549765,2096:146146.549765,XXXX,XXXX,-123.493188,50.969407,4544.220 m,3.65000,-0.51000,242.37000,T,3200,8.0,1000
2096_146149.54962294C000616-35-31.549_NIR_65363_124209.IIQ,94,16:35:31.549622,2096:146149.549622,XXXX,XXXX,-123.495834,50.968216,4547.559 m,4.03000,0.40000,242.64999,T,3200,8.0,1000
2096_146152.55021295C000616-35-34.550_NIR_65364_124210.IIQ,95,16:35:34.550212,2096:146152.550212,XXXX,XXXX,-123.498469,50.967037,4552.099 m,4.14000,1.37000,242.64000,T,3200,8.0,1000
2096_146155.55033896C000616-35-37.550_NIR_65365_124211.IIQ,96,16:35:37.550338,2096:146155.550338,XXXX,XXXX,-123.5011,50.965881,4556.399 m,3.95000,2.35000,243.85001,T,3200,8.0,1000
2096_146158.54990997C000616-35-40.549_NIR_65366_124212.IIQ,97,16:35:40.549909,2096:146158.549909,XXXX,XXXX,-123.503738,50.964755,4559.520 m,3.71000,-0.99000,244.21001,T,3200,8.0,1000
2096_146161.55005198C000616-35-43.550_NIR_65367_124213.IIQ,98,16:35:43.550051,2096:146161.550051,XXXX,XXXX,-123.506368,50.963631,4561.079 m,3.27000,-0.52000,244.06000,T,3200,8.0,1000
2096_146164.54961299C000616-35-46.549_NIR_65368_124214.IIQ,99,16:35:46.549612,2096:146164.549612,XXXX,XXXX,-123.508993,50.962502,4560.730 m,2.79000,-0.82000,243.83000,T,3200,8.0,1000
2096_146167.550775100C000616-35-49.550_NIR_65369_124215.IIQ,100,16:35:49.550775,2096:146167.550775,XXXX,XXXX,-123.511624,50.961365,4558.449 m,2.38000,-0.36000,243.74001,T,3200,8.0,1000
2096_146170.549632101C000616-35-52.549_NIR_65370_124216.IIQ,101,16:35:52.549632,2096:146170.549632,XXXX,XXXX,-123.514264,50.96022,4554.759 m,2.10000,-0.95000,243.46001,T,3200,8.0,1000
2096_146173.549491102C000616-35-55.549_NIR_65371_124217.IIQ,102,16:35:55.549491,2096:146173.549491,XXXX,XXXX,-123.516917,50.95906,4550.349 m,2.01000,-0.95000,243.08000,T,3200,8.0,1000
2096_146176.550011103C000616-35-58.550_NIR_65372_124218.IIQ,103,16:35:58.550011,2096:146176.550011,XXXX,XXXX,-123.519581,50.957884,4546.120 m,2.19000,-0.56000,242.95000,T,3200,8.0,1000
2096_146179.550207104C000616-36-01.550_NIR_65373_124219.IIQ,104,16:36:01.550207,2096:146179.550207,XXXX,XXXX,-123.522253,50.956699,4543.270 m,2.62000,-0.07000,242.91000,T,3200,8.0,1000
2096_146182.550067105C000616-36-04.550_NIR_65374_124220.IIQ,105,16:36:04.550067,2096:146182.550067,XXXX,XXXX,-123.524931,50.955515,4542.350 m,3.07000,0.51000,243.06000,T,3200,8.0,1000
2096_146185.549924106C000616-36-07.549_NIR_65375_124221.IIQ,106,16:36:07.549924,2096:146185.549924,XXXX,XXXX,-123.52761,50.954341,4543.279 m,3.44000,1.10000,243.38000,T,3200,8.0,1000
2096_146188.550412107C000616-36-10.550_NIR_65376_124222.IIQ,107,16:36:10.550412,2096:146188.550412,XXXX,XXXX,-123.530292,50.953186,4545.699 m,3.67000,1.72000,243.92999,T,3200,8.0,1000
2096_146191.549639108C000616-36-13.549_NIR_65377_124223.IIQ,108,16:36:13.549639,2096:146191.549639,XXXX,XXXX,-123.532976,50.952058,4549.170 m,3.72000,0.56000,244.58000,T,3200,8.0,1000
2096_146194.550114109C000616-36-16.550_NIR_65378_124224.IIQ,109,16:36:16.550114,2096:146194.550114,XXXX,XXXX,-123.535653,50.950942,4552.750 m,3.67000,-0.26000,244.14000,T,3200,8.0,1000
2096_146197.549354110C000616-36-19.549_NIR_65379_124225.IIQ,110,16:36:19.549354,2096:146197.549354,XXXX,XXXX,-123.538303,50.949811,4555.699 m,3.45000,-1.24000,243.39999,T,3200,8.0,1000
2096_146200.54881111C000616-36-22.548_NIR_65380_124226.IIQ,111,16:36:22.54881,2096:146200.54881,XXXX,XXXX,-123.540926,50.948656,4557.390 m,2.97000,-0.14000,242.74001,T,2500,8.0,1000
2096_146203.54907112C000616-36-25.549_NIR_65381_124227.IIQ,112,16:36:25.54907,2096:146203.54907,XXXX,XXXX,-123.543538,50.947482,4557.119 m,2.54000,0.30000,242.81000,T,2500,8.0,1000
2096_146206.549509113C000616-36-28.549_NIR_65382_124228.IIQ,113,16:36:28.549509,2096:146206.549509,XXXX,XXXX,-123.546164,50.94631,4554.959 m,2.25000,0.89000,243.23000,T,2000,8.0,1000
2096_146209.549785114C000616-36-31.549_NIR_65383_124229.IIQ,114,16:36:31.549785,2096:146209.549785,XXXX,XXXX,-123.548815,50.945146,4551.569 m,2.15000,0.88000,243.50000,T,1600,8.0,1000
2096_146212.550209115C000616-36-34.550_NIR_65384_124230.IIQ,115,16:36:34.550209,2096:146212.550209,XXXX,XXXX,-123.551489,50.943988,4547.850 m,2.22000,0.54000,243.86000,T,1600,8.0,1000
2096_146215.549509116C000616-36-37.549_NIR_65385_124231.IIQ,116,16:36:37.549509,2096:146215.549509,XXXX,XXXX,-123.554182,50.942834,4544.430 m,2.42000,-0.81000,243.78000,T,1600,8.0,1000
2096_146218.549908117C000616-36-40.549_NIR_65386_124232.IIQ,117,16:36:40.549908,2096:146218.549908,XXXX,XXXX,-123.55688,50.941673,4541.920 m,2.63000,-0.51000,243.62000,T,1600,8.0,1000
2096_146221.549219118C000616-36-43.549_NIR_65387_124233.IIQ,118,16:36:43.549219,2096:146221.549219,XXXX,XXXX,-123.55957,50.940494,4540.019 m,2.73000,-1.92000,242.67000,T,1600,8.0,1000
2096_146224.549078119C000616-36-46.549_NIR_65388_124234.IIQ,119,16:36:46.549078,2096:146224.549078,XXXX,XXXX,-123.562245,50.939293,4538.289 m,2.68000,-0.29000,242.03000,T,1600,8.0,1000
2096_146227.549934120C000616-36-49.549_NIR_65389_124235.IIQ,120,16:36:49.549934,2096:146227.549934,XXXX,XXXX,-123.564912,50.93807,4534.360 m,1.36000,-0.88000,241.60001,T,1600,8.0,1000
2096_146230.550309121C000616-36-52.550_NIR_65390_124236.IIQ,121,16:36:52.550309,2096:146230.550309,XXXX,XXXX,-123.567592,50.936829,4527.359 m,1.39000,-0.35000,241.17000,T,1600,8.0,1000
2096_146233.550649122C000616-36-55.550_NIR_65391_124237.IIQ,122,16:36:55.550649,2096:146233.550649,XXXX,XXXX,-123.570287,50.935569,4521.090 m,1.80000,0.12000,241.13000,T,1600,8.0,1000
2096_146236.55051123C000616-36-58.550_NIR_65392_124238.IIQ,123,16:36:58.55051,2096:146236.55051,XXXX,XXXX,-123.573001,50.934309,4517.329 m,2.38000,1.95000,241.53999,T,1600,8.0,1000
2096_146239.550365124C000616-37-01.550_NIR_65393_124239.IIQ,124,16:37:01.550365,2096:146239.550365,XXXX,XXXX,-123.575734,50.933066,4516.400 m,3.01000,-0.16000,241.91000,T,1600,8.0,1000
2096_146242.550709125C000616-37-04.550_NIR_65394_124240.IIQ,125,16:37:04.550709,2096:146242.550709,XXXX,XXXX,-123.578463,50.931831,4518.020 m,3.46000,-0.78000,241.78000,T,1600,8.0,1000
2096_146245.550083126C000616-37-07.550_NIR_65395_124241.IIQ,126,16:37:07.550083,2096:146245.550083,XXXX,XXXX,-123.581174,50.930599,4520.829 m,3.32000,1.51000,241.92999,T,2000,8.0,1000
2096_146248.549407127C000616-37-10.549_NIR_65396_124242.IIQ,127,16:37:10.549407,2096:146248.549407,XXXX,XXXX,-123.583886,50.929386,4522.250 m,2.69000,0.66000,242.42000,T,2000,8.0,1000
2096_146251.549794128C000616-37-13.549_NIR_65397_124243.IIQ,128,16:37:13.549794,2096:146251.549794,XXXX,XXXX,-123.586608,50.928181,4520.939 m,2.06000,0.11000,242.50000,T,2000,8.0,1000
2096_146254.550113129C000616-37-16.550_NIR_65398_124244.IIQ,129,16:37:16.550113,2096:146254.550113,XXXX,XXXX,-123.589346,50.926978,4517.300 m,1.81000,0.41000,242.75999,T,2000,8.0,1000
2096_146257.550509130C000616-37-19.550_NIR_65399_124245.IIQ,130,16:37:19.550509,2096:146257.550509,XXXX,XXXX,-123.592103,50.925774,4513.029 m,2.07000,0.23000,242.72000,T,2000,8.0,1000
2096_146260.55037131C000616-37-22.550_NIR_65400_124246.IIQ,131,16:37:22.55037,2096:146260.55037,XXXX,XXXX,-123.594875,50.924571,4509.750 m,2.38000,0.60000,243.07001,T,2000,8.0,1000
2096_146263.550228132C000616-37-25.550_NIR_65401_124247.IIQ,132,16:37:25.550228,2096:146263.550228,XXXX,XXXX,-123.597658,50.923374,4507.769 m,2.73000,0.11000,243.10001,T,2000,8.0,1000
2096_146266.550509133C000616-37-28.550_NIR_65402_124248.IIQ,133,16:37:28.550509,2096:146266.550509,XXXX,XXXX,-123.600446,50.922184,4507.159 m,3.09000,0.27000,243.42999,T,2500,8.0,1000
2096_146269.549946134C000616-37-31.549_NIR_65403_124249.IIQ,134,16:37:31.549946,2096:146269.549946,XXXX,XXXX,-123.60323,50.921004,4507.980 m,3.49000,-0.03000,243.42000,T,3200,8.0,1000
2096_146272.550211135C000616-37-34.550_NIR_65404_124250.IIQ,135,16:37:34.550211,2096:146272.550211,XXXX,XXXX,-123.606001,50.919829,4510.010 m,3.79000,-0.57000,243.34000,T,3200,8.0,1000
2096_146275.549667136C000616-37-37.549_NIR_65405_124251.IIQ,136,16:37:37.549667,2096:146275.549667,XXXX,XXXX,-123.608748,50.918654,4512.720 m,3.88000,-1.63000,242.82001,T,3200,8.0,640
2096_146278.550523137C000616-37-40.550_NIR_65406_124252.IIQ,137,16:37:40.550523,2096:146278.550523,XXXX,XXXX,-123.611461,50.917463,4515.449 m,3.73000,-0.66000,242.17000,T,3200,8.0,640
2096_146281.549759138C000616-37-43.549_NIR_65407_124253.IIQ,138,16:37:43.549759,2096:146281.549759,XXXX,XXXX,-123.614144,50.916262,4517.520 m,3.39000,-0.55000,241.75000,T,3200,8.0,640
2096_146284.549608139C000616-37-46.549_NIR_65408_124254.IIQ,139,16:37:46.549608,2096:146284.549608,XXXX,XXXX,-123.616805,50.915048,4519.690 m,4.31000,-0.07000,241.14999,T,3200,8.0,640
2096_146287.550098140C000616-37-49.550_NIR_65409_124255.IIQ,140,16:37:49.550098,2096:146287.550098,XXXX,XXXX,-123.619428,50.91382,4524.980 m,4.89000,-0.84000,240.55000,T,2500,8.0,640
2096_146290.549308141C000616-37-52.549_NIR_65410_124256.IIQ,141,16:37:52.549308,2096:146290.549308,XXXX,XXXX,-123.62201,50.912593,4531.510 m,4.88000,1.69000,240.73000,T,2000,8.0,640
2096_146293.549816142C000616-37-55.549_NIR_65411_124257.IIQ,142,16:37:55.549816,2096:146293.549816,XXXX,XXXX,-123.624582,50.911391,4536.229 m,3.96000,1.57000,241.50999,T,2000,8.0,640
2096_146296.558007143C000616-37-58.558_NIR_65412_124258.IIQ,143,16:37:58.558007,2096:146296.558007,XXXX,XXXX,-123.627169,50.910209,4537.209 m,3.18000,1.35000,242.10001,T,1600,8.0,640
2096_146299.550534144C000616-38-01.550_NIR_65413_124259.IIQ,144,16:38:01.550534,2096:146299.550534,XXXX,XXXX,-123.629764,50.90905,4535.289 m,2.71000,1.28000,242.53999,T,1600,8.0,640
2096_146302.549709145C000616-38-04.549_NIR_65414_124260.IIQ,145,16:38:04.549709,2096:146302.549709,XXXX,XXXX,-123.632394,50.9079,4531.609 m,2.33000,1.47000,242.96001,T,1250,8.0,640
2096_146305.551249146C000616-38-07.551_NIR_65415_124261.IIQ,146,16:38:07.551249,2096:146305.551249,XXXX,XXXX,-123.635063,50.906761,4527.189 m,2.39000,0.24000,243.60001,T,1250,8.0,640
2096_146308.550407147C000616-38-10.550_NIR_65416_124262.IIQ,147,16:38:10.550407,2096:146308.550407,XXXX,XXXX,-123.637754,50.905624,4523.809 m,2.78000,-0.43000,243.28000,T,1250,8.0,640
2096_146311.549966148C000616-38-13.549_NIR_65417_124263.IIQ,148,16:38:13.549966,2096:146311.549966,XXXX,XXXX,-123.640445,50.904469,4522.210 m,3.17000,0.19000,242.99001,T,1000,8.0,640
2096_146314.550106149C000616-38-16.550_NIR_65418_124264.IIQ,149,16:38:16.550106,2096:146314.550106,XXXX,XXXX,-123.643139,50.903313,4522.610 m,3.64000,-0.85000,243.19000,T,1000,8.0,640
2096_146317.550683150C000616-38-19.550_NIR_65419_124265.IIQ,150,16:38:19.550683,2096:146317.550683,XXXX,XXXX,-123.645823,50.90215,4524.850 m,4.03000,-0.67000,242.59000,T,1000,8.0,640
2096_146320.550806151C000616-38-22.550_NIR_65420_124266.IIQ,151,16:38:22.550806,2096:146320.550806,XXXX,XXXX,-123.648483,50.900978,4528.529 m,4.22000,0.13000,242.47000,T,1000,8.0,640
2096_146323.550397152C000616-38-25.550_NIR_65421_124267.IIQ,152,16:38:25.550397,2096:146323.550397,XXXX,XXXX,-123.651128,50.899811,4533.000 m,4.34000,-0.25000,242.60001,T,1000,8.0,640
2096_146326.550501153C000616-38-28.550_NIR_65422_124268.IIQ,153,16:38:28.550501,2096:146326.550501,XXXX,XXXX,-123.653757,50.898648,4537.409 m,4.26000,-0.77000,242.47000,T,1000,8.0,640
2096_146329.550351154C000616-38-31.550_NIR_65423_124269.IIQ,154,16:38:31.550351,2096:146329.550351,XXXX,XXXX,-123.656369,50.897484,4541.060 m,4.08000,-0.48000,242.30000,T,1000,8.0,640
2096_146332.550981155C000616-38-34.550_NIR_65424_124270.IIQ,155,16:38:34.550981,2096:146332.550981,XXXX,XXXX,-123.658968,50.896319,4543.949 m,3.84000,0.19000,242.16000,T,1000,8.0,640
2096_146335.55105156C000616-38-37.551_NIR_65425_124271.IIQ,156,16:38:37.55105,2096:146335.55105,XXXX,XXXX,-123.661564,50.895158,4546.079 m,3.67000,0.05000,242.42999,T,1000,8.0,640
2096_146338.550688157C000616-38-40.550_NIR_65426_124272.IIQ,157,16:38:40.550688,2096:146338.550688,XXXX,XXXX,-123.664159,50.893999,4547.389 m,3.49000,-0.70000,242.21001,T,1000,8.0,640
2096_146341.550752158C000616-38-43.550_NIR_65427_124273.IIQ,158,16:38:43.550752,2096:146341.550752,XXXX,XXXX,-123.666751,50.892834,4548.110 m,3.42000,-0.81000,241.80000,T,1250,8.0,640
2096_146344.550407159C000616-38-46.550_NIR_65428_124274.IIQ,159,16:38:46.550407,2096:146344.550407,XXXX,XXXX,-123.669334,50.891656,4548.670 m,3.33000,-0.76000,241.46001,T,1250,8.0,640
2096_146347.55045160C000616-38-49.550_NIR_65429_124275.IIQ,160,16:38:49.55045,2096:146347.55045,XXXX,XXXX,-123.671913,50.890469,4549.359 m,3.28000,-0.02000,241.45000,T,1600,8.0,640
2096_146350.550299161C000616-38-52.550_NIR_65430_124276.IIQ,161,16:38:52.550299,2096:146350.550299,XXXX,XXXX,-123.674495,50.889282,4550.300 m,3.31000,-0.07000,241.46001,T,1600,8.0,640
2096_146353.550146162C000616-38-55.550_NIR_65431_124277.IIQ,162,16:38:55.550146,2096:146353.550146,XXXX,XXXX,-123.677079,50.888095,4551.639 m,3.40000,-0.95000,241.19000,T,1600,8.0,640
2096_146356.549999163C000616-38-58.549_NIR_65432_124278.IIQ,163,16:38:58.549999,2096:146356.549999,XXXX,XXXX,-123.679654,50.886897,4553.160 m,3.48000,-0.49000,240.69000,T,1600,8.0,640
2096_146359.549848164C000616-39-01.549_NIR_65433_124279.IIQ,164,16:39:01.549848,2096:146359.549848,XXXX,XXXX,-123.682217,50.885685,4554.869 m,3.52000,0.46000,240.57001,T,1600,8.0,640
2096_146362.550553165C000616-39-04.550_NIR_65434_124280.IIQ,165,16:39:04.550553,2096:146362.550553,XXXX,XXXX,-123.684783,50.884478,4556.819 m,3.53000,0.47000,240.89000,T,1600,8.0,640
2096_146365.550548166C000616-39-07.550_NIR_65435_124281.IIQ,166,16:39:07.550548,2096:146365.550548,XXXX,XXXX,-123.687351,50.883278,4558.840 m,3.48000,-0.14000,241.25999,T,1250,8.0,640
2096_146368.550268167C000616-39-10.550_NIR_65436_124282.IIQ,167,16:39:10.550268,2096:146368.550268,XXXX,XXXX,-123.689918,50.882079,4560.740 m,3.65000,-0.45000,241.49001,T,1250,8.0,640
2096_146371.550247168C000616-39-13.550_NIR_65437_124283.IIQ,168,16:39:13.550247,2096:146371.550247,XXXX,XXXX,-123.692476,50.880879,4562.840 m,3.72000,-0.45000,241.49001,T,1250,8.0,640
2096_146374.550981169C000616-39-16.550_NIR_65438_124284.IIQ,169,16:39:16.550981,2096:146374.550981,XXXX,XXXX,-123.695025,50.879677,4564.579 m,3.66000,-0.20000,241.47000,T,1250,8.0,640
2096_146377.550951170C000616-39-19.550_NIR_65439_124285.IIQ,170,16:39:19.550951,2096:146377.550951,XXXX,XXXX,-123.697567,50.878474,4565.210 m,3.52000,-0.57000,241.41000,T,1250,8.0,640
2096_146380.549798171C000616-39-22.549_NIR_65440_124286.IIQ,171,16:39:22.549798,2096:146380.549798,XXXX,XXXX,-123.700102,50.877266,4564.649 m,3.29000,-0.28000,241.28999,T,1250,8.0,640
2096_146383.550648172C000616-39-25.550_NIR_65441_124287.IIQ,172,16:39:25.550648,2096:146383.550648,XXXX,XXXX,-123.702638,50.876054,4563.159 m,3.11000,0.12000,241.35001,T,1250,8.0,640
2096_146386.551413173C000616-39-28.551_NIR_65442_124288.IIQ,173,16:39:28.551413,2096:146386.551413,XXXX,XXXX,-123.70518,50.874841,4561.250 m,3.12000,-0.64000,241.31000,T,1250,8.0,640
2096_146605.149827174C000616-43-07.149_NIR_65443_124289.IIQ,174,16:43:07.149827,2096:146605.149827,XXXX,XXXX,-123.818954,50.808446,4567.529 m,7.72000,4.02000,46.11000,T,1250,8.0,640
2096_146610.150024175C000616-43-12.150_NIR_65444_124290.IIQ,175,16:43:12.150024,2096:146610.150024,XXXX,XXXX,-123.814718,50.810329,4580.640 m,3.68000,-0.37000,46.93000,T,800,8.0,640
2096_146615.152365176C000616-43-17.152_NIR_65445_124291.IIQ,176,16:43:17.152365,2096:146615.152365,XXXX,XXXX,-123.810436,50.812234,4570.100 m,2.16000,-0.19000,46.84000,T,800,8.0,640
2096_146620.15211177C000616-43-22.152_NIR_65446_124292.IIQ,177,16:43:22.15211,2096:146620.15211,XXXX,XXXX,-123.806058,50.814199,4562.899 m,3.55000,0.81000,46.84000,T,800,8.0,640
2096_146625.151856178C000616-43-27.151_NIR_65447_124293.IIQ,178,16:43:27.151856,2096:146625.151856,XXXX,XXXX,-123.801604,50.816175,4558.079 m,2.19000,-0.19000,47.41000,T,800,8.0,640
2096_146630.152213179C000616-43-32.152_NIR_65448_124294.IIQ,179,16:43:32.152213,2096:146630.152213,XXXX,XXXX,-123.797068,50.818187,4548.420 m,2.83000,-1.00000,47.02000,T,800,8.0,640
2096_146635.150974180C000616-43-37.150_NIR_65449_124295.IIQ,180,16:43:37.150974,2096:146635.150974,XXXX,XXXX,-123.792508,50.820235,4546.760 m,3.79000,-0.92000,47.02000,T,800,8.0,640
2096_146640.151736181C000616-43-42.151_NIR_65450_124296.IIQ,181,16:43:42.151736,2096:146640.151736,XXXX,XXXX,-123.787933,50.822288,4543.770 m,1.77000,0.87000,47.82000,T,800,8.0,640
2096_146645.151849182C000616-43-47.151_NIR_65451_124297.IIQ,182,16:43:47.151849,2096:146645.151849,XXXX,XXXX,-123.783263,50.824337,4539.259 m,3.69000,0.59000,48.11000,T,800,8.0,640
2096_146650.151263183C000616-43-52.151_NIR_65452_124298.IIQ,183,16:43:52.151263,2096:146650.151263,XXXX,XXXX,-123.778549,50.826355,4543.140 m,3.77000,-0.91000,49.24000,T,800,8.0,640
2096_146655.152341184C000616-43-57.152_NIR_65453_124299.IIQ,184,16:43:57.152341,2096:146655.152341,XXXX,XXXX,-123.773839,50.828367,4544.880 m,3.06000,-0.11000,48.45000,T,800,8.0,640
2096_146660.151785185C000616-44-02.151_NIR_65454_124300.IIQ,185,16:44:02.151785,2096:146660.151785,XXXX,XXXX,-123.769166,50.830424,4541.859 m,2.77000,-0.56000,47.64000,T,800,8.0,640
2096_146665.150835186C000616-44-07.150_NIR_65455_124301.IIQ,186,16:44:07.150835,2096:146665.150835,XXXX,XXXX,-123.764497,50.832518,4537.940 m,2.92000,1.16000,47.85000,T,800,8.0,640
2096_146670.15131187C000616-44-12.151_NIR_65456_124302.IIQ,187,16:44:12.15131,2096:146670.15131,XXXX,XXXX,-123.759781,50.834598,4537.579 m,3.67000,0.05000,47.95000,T,800,8.0,640
2096_146675.152334188C000616-44-17.152_NIR_65457_124303.IIQ,188,16:44:17.152334,2096:146675.152334,XXXX,XXXX,-123.755071,50.836661,4543.630 m,4.48000,-0.43000,47.82000,T,800,8.0,640
2096_146680.152085189C000616-44-22.152_NIR_65458_124304.IIQ,189,16:44:22.152085,2096:146680.152085,XXXX,XXXX,-123.750425,50.838707,4552.860 m,4.43000,-0.96000,47.54000,T,800,8.0,640
2096_146685.151829190C000616-44-27.151_NIR_65459_124305.IIQ,190,16:44:27.151829,2096:146685.151829,XXXX,XXXX,-123.745849,50.840753,4559.500 m,3.77000,-0.45000,47.05000,T,1000,8.0,640
2096_146690.152369191C000616-44-32.152_NIR_65460_124306.IIQ,191,16:44:32.152369,2096:146690.152369,XXXX,XXXX,-123.7413,50.842805,4561.189 m,3.04000,-0.75000,46.83000,T,1000,8.0,640
2096_146695.152328192C000616-44-37.152_NIR_65461_124307.IIQ,192,16:44:37.152328,2096:146695.152328,XXXX,XXXX,-123.736761,50.844888,4558.900 m,2.75000,-1.77000,45.95000,T,1250,8.0,640
2096_146700.151898193C000616-44-42.151_NIR_65462_124308.IIQ,193,16:44:42.151898,2096:146700.151898,XXXX,XXXX,-123.732268,50.847036,4555.079 m,2.88000,-0.76000,44.96000,T,1250,8.0,640
2096_146705.151825194C000616-44-47.151_NIR_65463_124309.IIQ,194,16:44:47.151825,2096:146705.151825,XXXX,XXXX,-123.727765,50.849203,4552.770 m,3.46000,2.13000,46.58000,T,1600,8.0,640
2096_146710.152425195C000616-44-52.152_NIR_65464_124310.IIQ,195,16:44:52.152425,2096:146710.152425,XXXX,XXXX,-123.723184,50.851313,4553.309 m,3.91000,1.55000,46.78000,T,1600,8.0,640
2096_146715.152323196C000616-44-57.152_NIR_65465_124311.IIQ,196,16:44:57.152323,2096:146715.152323,XXXX,XXXX,-123.718583,50.853388,4554.269 m,3.40000,2.15000,47.49000,T,1600,8.0,640
2096_146720.152072197C000616-45-02.152_NIR_65466_124312.IIQ,197,16:45:02.152072,2096:146720.152072,XXXX,XXXX,-123.713921,50.855424,4551.490 m,2.72000,0.00000,48.28000,T,1600,8.0,640
2096_146725.151819198C000616-45-07.151_NIR_65467_124313.IIQ,198,16:45:07.151819,2096:146725.151819,XXXX,XXXX,-123.709207,50.857457,4546.779 m,2.68000,-0.18000,48.43000,T,1250,8.0,640
2096_146730.151569199C000616-45-12.151_NIR_65468_124314.IIQ,199,16:45:12.151569,2096:146730.151569,XXXX,XXXX,-123.704469,50.859501,4543.569 m,3.28000,-0.34000,48.34000,T,1250,8.0,640
2096_146735.151317200C000616-45-17.151_NIR_65469_124315.IIQ,200,16:45:17.151317,2096:146735.151317,XXXX,XXXX,-123.699743,50.861548,4546.079 m,4.08000,-0.81000,48.28000,T,1250,8.0,640
2096_146740.151069201C000616-45-22.151_NIR_65470_124316.IIQ,201,16:45:22.151069,2096:146740.151069,XXXX,XXXX,-123.695078,50.863596,4553.449 m,4.16000,-0.61000,47.45000,T,1250,8.0,640
2096_146745.151818202C000616-45-27.151_NIR_65471_124317.IIQ,202,16:45:27.151818,2096:146745.151818,XXXX,XXXX,-123.690468,50.865642,4560.690 m,3.72000,-0.86000,47.45000,T,1250,8.0,640
2096_146750.151567203C000616-45-32.151_NIR_65472_124318.IIQ,203,16:45:32.151567,2096:146750.151567,XXXX,XXXX,-123.685915,50.867717,4564.069 m,2.84000,-2.26000,45.51000,T,1250,8.0,640
2096_146755.152296204C000616-45-37.152_NIR_65473_124319.IIQ,204,16:45:37.152296,2096:146755.152296,XXXX,XXXX,-123.681426,50.869865,4563.380 m,2.82000,-0.39000,45.45000,T,1250,8.0,640
2096_146760.151074205C000616-45-42.151_NIR_65474_124320.IIQ,205,16:45:42.151074,2096:146760.151074,XXXX,XXXX,-123.67687,50.871994,4563.240 m,3.16000,1.69000,47.18000,T,1250,8.0,640
2096_146765.15183206C000616-45-47.151_NIR_65475_124321.IIQ,206,16:45:47.15183,2096:146765.15183,XXXX,XXXX,-123.672215,50.874066,4564.189 m,3.53000,0.75000,48.09000,T,1250,8.0,640
2096_146770.15059207C000616-45-52.150_NIR_65476_124322.IIQ,207,16:45:52.15059,2096:146770.15059,XXXX,XXXX,-123.667534,50.87611,4566.550 m,3.64000,-0.86000,48.27000,T,1250,8.0,640
2096_146775.152352208C000616-45-57.152_NIR_65477_124323.IIQ,208,16:45:57.152352,2096:146775.152352,XXXX,XXXX,-123.662871,50.878158,4568.900 m,3.45000,0.74000,48.14000,T,1000,8.0,640
2096_146780.152112209C000616-46-02.152_NIR_65478_124324.IIQ,209,16:46:02.152112,2096:146780.152112,XXXX,XXXX,-123.65818,50.880185,4569.630 m,3.21000,1.75000,49.20000,T,800,8.0,640
2096_146785.151875210C000616-46-07.151_NIR_65479_124325.IIQ,210,16:46:07.151875,2096:146785.151875,XXXX,XXXX,-123.653415,50.882169,4569.199 m,3.09000,0.14000,49.80000,T,800,8.0,640
2096_146790.161701211C000616-46-12.161_NIR_65480_124326.IIQ,211,16:46:12.161701,2096:146790.161701,XXXX,XXXX,-123.648618,50.884153,4569.170 m,3.25000,-0.66000,49.39000,T,800,8.0,640
2096_146795.16135212C000616-46-17.161_NIR_65481_124327.IIQ,212,16:46:17.16135,2096:146795.16135,XXXX,XXXX,-123.643873,50.886171,4570.319 m,3.39000,-0.15000,48.82000,T,800,8.0,640
2096_146800.161224213C000616-46-22.161_NIR_65482_124328.IIQ,213,16:46:22.161224,2096:146800.161224,XXXX,XXXX,-123.639194,50.888234,4571.920 m,3.47000,-1.80000,47.76000,T,800,8.0,640
2096_146805.161851214C000616-46-27.161_NIR_65483_124329.IIQ,214,16:46:27.161851,2096:146805.161851,XXXX,XXXX,-123.634567,50.890331,4573.079 m,3.40000,0.09000,47.58000,T,800,8.0,640
2096_146810.160748215C000616-46-32.160_NIR_65484_124330.IIQ,215,16:46:32.160748,2096:146810.160748,XXXX,XXXX,-123.629935,50.89242,4573.690 m,2.86000,0.06000,47.18000,T,800,8.0,640
2096_146815.161515216C000616-46-37.161_NIR_65485_124331.IIQ,216,16:46:37.161515,2096:146815.161515,XXXX,XXXX,-123.625282,50.894519,4567.960 m,1.78000,0.59000,47.44000,T,800,8.0,640
2096_146820.161281217C000616-46-42.161_NIR_65486_124332.IIQ,217,16:46:42.161281,2096:146820.161281,XXXX,XXXX,-123.620558,50.896636,4559.149 m,2.01000,0.46000,48.03000,T,1000,8.0,640
2096_146825.161045218C000616-46-47.161_NIR_65487_124333.IIQ,218,16:46:47.161045,2096:146825.161045,XXXX,XXXX,-123.615765,50.898761,4553.730 m,2.40000,0.70000,48.37000,T,1250,8.0,640
2096_146830.161591219C000616-46-52.161_NIR_65488_124334.IIQ,219,16:46:52.161591,2096:146830.161591,XXXX,XXXX,-123.610921,50.900876,4550.299 m,2.71000,0.59000,49.22000,T,1250,8.0,640
2096_146835.161577220C000616-46-57.161_NIR_65489_124335.IIQ,220,16:46:57.161577,2096:146835.161577,XXXX,XXXX,-123.606033,50.902968,4548.689 m,3.19000,0.77000,49.79000,T,1250,8.0,640
2096_146840.162088221C000616-47-02.162_NIR_65490_124336.IIQ,221,16:47:02.162088,2096:146840.162088,XXXX,XXXX,-123.60112,50.905023,4549.030 m,3.21000,0.86000,50.13000,T,1250,8.0,640
2096_146845.161834222C000616-47-07.161_NIR_65491_124337.IIQ,222,16:47:07.161834,2096:146845.161834,XXXX,XXXX,-123.596195,50.907045,4550.859 m,3.39000,0.17000,49.78000,T,1000,8.0,640
2096_146850.161584223C000616-47-12.161_NIR_65492_124338.IIQ,223,16:47:12.161584,2096:146850.161584,XXXX,XXXX,-123.591306,50.90906,4553.390 m,3.32000,-0.03000,49.00000,T,800,8.0,640
2096_146855.160642224C000616-47-17.160_NIR_65493_124339.IIQ,224,16:47:17.160642,2096:146855.160642,XXXX,XXXX,-123.586498,50.91111,4554.190 m,3.09000,-0.65000,48.34000,T,800,8.0,640
2096_146860.161078225C000616-47-22.161_NIR_65494_124340.IIQ,225,16:47:22.161078,2096:146860.161078,XXXX,XXXX,-123.581735,50.913191,4552.739 m,2.90000,-0.97000,47.79000,T,800,8.0,640
2096_146865.161176226C000616-47-27.161_NIR_65495_124341.IIQ,226,16:47:27.161176,2096:146865.161176,XXXX,XXXX,-123.577007,50.915299,4551.460 m,2.89000,-0.86000,47.12000,T,800,8.0,640
2096_146870.161942227C000616-47-32.161_NIR_65496_124342.IIQ,227,16:47:32.161942,2096:146870.161942,XXXX,XXXX,-123.572318,50.917436,4549.860 m,2.95000,-0.43000,46.48000,T,800,8.0,640
2096_146875.161704228C000616-47-37.161_NIR_65497_124343.IIQ,228,16:47:37.161704,2096:146875.161704,XXXX,XXXX,-123.567683,50.919605,4549.159 m,2.94000,-0.45000,45.86000,T,800,8.0,640
2096_146880.161067229C000616-47-42.161_NIR_65498_124344.IIQ,229,16:47:42.161067,2096:146880.161067,XXXX,XXXX,-123.563102,50.921803,4548.829 m,2.91000,-0.87000,45.23000,T,800,8.0,640
2096_146885.161238230C000616-47-47.161_NIR_65499_124345.IIQ,230,16:47:47.161238,2096:146885.161238,XXXX,XXXX,-123.558576,50.924031,4548.250 m,3.15000,-0.86000,44.26000,T,800,8.0,640
2096_146890.161566231C000616-47-52.161_NIR_65500_124346.IIQ,231,16:47:52.161566,2096:146890.161566,XXXX,XXXX,-123.554094,50.926285,4547.689 m,2.95000,-0.38000,43.88000,T,800,8.0,640
2096_146895.160766232C000616-47-57.160_NIR_65501_124347.IIQ,232,16:47:57.160766,2096:146895.160766,XXXX,XXXX,-123.549608,50.92854,4546.720 m,2.99000,0.95000,44.30000,T,800,8.0,640
2096_146900.161534233C000616-48-02.161_NIR_65502_124348.IIQ,233,16:48:02.161534,2096:146900.161534,XXXX,XXXX,-123.545058,50.930762,4545.989 m,2.94000,2.12000,45.54000,T,800,8.0,640
2096_146905.162298234C000616-48-07.162_NIR_65503_124349.IIQ,234,16:48:07.162298,2096:146905.162298,XXXX,XXXX,-123.540423,50.932933,4545.989 m,3.33000,1.30000,46.46000,T,800,8.0,640
2096_146910.161063235C000616-48-12.161_NIR_65504_124350.IIQ,235,16:48:12.161063,2096:146910.161063,XXXX,XXXX,-123.535732,50.935058,4547.200 m,3.14000,1.29000,47.35000,T,800,8.0,640
2096_146915.1623236C000616-48-17.162_NIR_65505_124351.IIQ,236,16:48:17.1623,2096:146915.1623,XXXX,XXXX,-123.53098,50.93714,4547.429 m,3.19000,1.73000,48.26000,T,1000,8.0,640
2096_146920.162048237C000616-48-22.162_NIR_65506_124352.IIQ,237,16:48:22.162048,2096:146920.162048,XXXX,XXXX,-123.526166,50.939171,4547.119 m,3.21000,1.50000,49.31000,T,1250,8.0,640
2096_146925.160799238C000616-48-27.160_NIR_65507_124353.IIQ,238,16:48:27.160799,2096:146925.160799,XXXX,XXXX,-123.521291,50.94115,4547.630 m,3.32000,1.58000,50.55000,T,1250,8.0,640
2096_146930.161549239C000616-48-32.161_NIR_65508_124354.IIQ,239,16:48:32.161549,2096:146930.161549,XXXX,XXXX,-123.516358,50.943077,4549.109 m,3.40000,1.24000,51.24000,T,1250,8.0,640
2096_146935.161884240C000616-48-37.161_NIR_65509_124355.IIQ,240,16:48:37.161884,2096:146935.161884,XXXX,XXXX,-123.511393,50.944965,4552.019 m,3.44000,-0.32000,51.39000,T,1250,8.0,640
2096_146940.161651241C000616-48-42.161_NIR_65510_124356.IIQ,241,16:48:42.161651,2096:146940.161651,XXXX,XXXX,-123.506445,50.946853,4554.869 m,3.07000,-0.21000,51.12000,T,1000,8.0,640
2096_146945.162413242C000616-48-47.162_NIR_65511_124357.IIQ,242,16:48:47.162413,2096:146945.162413,XXXX,XXXX,-123.5015,50.948751,4554.860 m,2.73000,-0.59000,50.89000,T,1000,8.0,640
2096_146950.161549243C000616-48-52.161_NIR_65512_124358.IIQ,243,16:48:52.161549,2096:146950.161549,XXXX,XXXX,-123.496552,50.950667,4553.449 m,3.15000,-1.25000,50.57000,T,1000,8.0,640
2096_146955.1613244C000616-48-57.161_NIR_65513_124359.IIQ,244,16:48:57.1613,2096:146955.1613,XXXX,XXXX,-123.491688,50.952639,4558.289 m,4.42000,-0.89000,48.75000,T,1000,8.0,640
2096_146960.161047245C000616-49-02.161_NIR_65514_124360.IIQ,245,16:49:02.161047,2096:146960.161047,XXXX,XXXX,-123.486912,50.954629,4562.539 m,2.87000,-2.55000,48.32000,T,1000,8.0,640
2096_146965.161465246C000616-49-07.161_NIR_65515_124361.IIQ,246,16:49:07.161465,2096:146965.161465,XXXX,XXXX,-123.482197,50.956681,4557.840 m,1.98000,-0.29000,47.13000,T,1000,8.0,640
2096_146970.161545247C000616-49-12.161_NIR_65516_124362.IIQ,247,16:49:12.161545,2096:146970.161545,XXXX,XXXX,-123.477505,50.958807,4549.680 m,1.95000,-0.88000,46.27000,T,1000,8.0,640
2096_146975.161993248C000616-49-17.161_NIR_65517_124363.IIQ,248,16:49:17.161993,2096:146975.161993,XXXX,XXXX,-123.47281,50.960994,4543.380 m,2.58000,-0.44000,45.98000,T,1000,8.0,640
2096_146980.162046249C000616-49-22.162_NIR_65518_124364.IIQ,249,16:49:22.162046,2096:146980.162046,XXXX,XXXX,-123.468124,50.963209,4544.529 m,4.22000,0.20000,46.14000,T,1000,8.0,640
2096_146985.161519250C000616-49-27.161_NIR_65519_124365.IIQ,250,16:49:27.161519,2096:146985.161519,XXXX,XXXX,-123.463488,50.965402,4555.119 m,4.95000,0.01000,45.81000,T,1000,8.0,640
2096_146990.161542251C000616-49-32.161_NIR_65520_124366.IIQ,251,16:49:32.161542,2096:146990.161542,XXXX,XXXX,-123.45892,50.967559,4566.680 m,4.39000,0.48000,45.97000,T,1000,8.0,640
2096_146995.162047252C000616-49-37.162_NIR_65521_124367.IIQ,252,16:49:37.162047,2096:146995.162047,XXXX,XXXX,-123.454367,50.969681,4572.420 m,3.42000,0.51000,46.37000,T,1000,8.0,640
2096_147000.162043253C000616-49-42.162_NIR_65522_124368.IIQ,253,16:49:42.162043,2096:147000.162043,XXXX,XXXX,-123.449786,50.971792,4571.819 m,2.53000,-0.64000,46.39000,T,1000,8.0,640
2096_147005.161791254C000616-49-47.161_NIR_65523_124369.IIQ,254,16:49:47.161791,2096:147005.161791,XXXX,XXXX,-123.445191,50.973941,4567.109 m,2.20000,-0.32000,45.67000,T,1000,8.0,640
2096_147010.161537255C000616-49-52.161_NIR_65524_124370.IIQ,255,16:49:52.161537,2096:147010.161537,XXXX,XXXX,-123.440617,50.976161,4562.000 m,2.67000,-1.18000,44.28000,T,1000,8.0,640
2096_147015.162102256C000616-49-57.162_NIR_65525_124371.IIQ,256,16:49:57.162102,2096:147015.162102,XXXX,XXXX,-123.436092,50.978439,4561.439 m,3.58000,2.81000,44.68000,T,1000,8.0,640
2096_147020.162035257C000616-50-02.162_NIR_65526_124372.IIQ,257,16:50:02.162035,2096:147020.162035,XXXX,XXXX,-123.431516,50.980666,4565.960 m,4.07000,1.21000,45.86000,T,1000,8.0,640
2096_147025.161621258C000616-50-07.161_NIR_65527_124373.IIQ,258,16:50:07.161621,2096:147025.161621,XXXX,XXXX,-123.426926,50.982839,4571.619 m,4.22000,-0.49000,46.31000,T,1000,8.0,640
2096_147030.161531259C000616-50-12.161_NIR_65528_124374.IIQ,259,16:50:12.161531,2096:147030.161531,XXXX,XXXX,-123.422367,50.984991,4575.319 m,3.95000,1.38000,46.36000,T,1000,8.0,640
2096_147035.162145260C000616-50-17.162_NIR_65529_124375.IIQ,260,16:50:17.162145,2096:147035.162145,XXXX,XXXX,-123.41777,50.987096,4575.520 m,3.34000,3.81000,47.14000,T,1000,8.0,640
2096_147040.161028261C000616-50-22.161_NIR_65530_124376.IIQ,261,16:50:22.161028,2096:147040.161028,XXXX,XXXX,-123.413035,50.989111,4572.800 m,2.90000,0.37000,49.11000,T,1250,8.0,640
2096_147045.162669262C000616-50-27.162_NIR_65531_124377.IIQ,262,16:50:27.162669,2096:147045.162669,XXXX,XXXX,-123.408233,50.991108,4569.890 m,2.77000,-0.92000,48.60000,T,1250,8.0,640
2096_147050.161525263C000616-50-32.161_NIR_65532_124378.IIQ,263,16:50:32.161525,2096:147050.161525,XXXX,XXXX,-123.403433,50.993138,4567.649 m,2.59000,1.30000,48.78000,T,1250,8.0,640
2096_147055.161271264C000616-50-37.161_NIR_65533_124379.IIQ,264,16:50:37.161271,2096:147055.161271,XXXX,XXXX,-123.39856,50.995153,4565.000 m,2.76000,1.97000,50.51000,T,1000,8.0,640
2096_147060.162021265C000616-50-42.162_NIR_65534_124380.IIQ,265,16:50:42.162021,2096:147060.162021,XXXX,XXXX,-123.393599,50.997129,4563.670 m,3.10000,0.02000,50.69000,T,1000,8.0,640
2096_147065.161724266C000616-50-47.161_NIR_65535_124381.IIQ,266,16:50:47.161724,2096:147065.161724,XXXX,XXXX,-123.388636,50.999107,4564.030 m,3.40000,-2.69000,49.56000,T,1000,8.0,640
2096_147070.161522267C000616-50-52.161_NIR_65536_124382.IIQ,267,16:50:52.161522,2096:147070.161522,XXXX,XXXX,-123.383747,51.00113,4565.359 m,3.25000,2.66000,49.55000,T,1000,8.0,640
2096_147075.162252268C000616-50-57.162_NIR_65537_124383.IIQ,268,16:50:57.162252,2096:147075.162252,XXXX,XXXX,-123.378796,51.003111,4564.510 m,2.45000,-1.79000,50.24000,T,1250,8.0,640
2096_147080.161029269C000616-51-02.161_NIR_65538_124384.IIQ,269,16:51:02.161029,2096:147080.161029,XXXX,XXXX,-123.373856,51.005134,4559.590 m,2.07000,-0.88000,49.13000,T,1250,8.0,640
2096_147085.16179270C000616-51-07.161_NIR_65539_124385.IIQ,270,16:51:07.16179,2096:147085.16179,XXXX,XXXX,-123.368927,51.007219,4554.750 m,2.47000,-0.92000,48.81000,T,1600,8.0,640
2096_147090.162503271C000616-51-12.162_NIR_65540_124386.IIQ,271,16:51:12.162503,2096:147090.162503,XXXX,XXXX,-123.364018,51.009342,4554.010 m,3.32000,-0.92000,48.30000,T,1600,8.0,640
2096_147095.16125272C000616-51-17.161_NIR_65541_124387.IIQ,272,16:51:17.16125,2096:147095.16125,XXXX,XXXX,-123.359182,51.011488,4558.500 m,4.21000,-6.73000,46.59000,T,1600,8.0,640
2096_147108.752561273C000616-51-30.752_NIR_65542_124388.IIQ,273,16:51:30.752561,2096:147108.752561,XXXX,XXXX,-123.348764,51.018556,4560.420 m,2.20000,-14.87000,22.36000,T,1600,8.0,640
2096_147118.821204275C000616-51-40.821_NIR_65543_124389.IIQ,275,16:51:40.821204,2096:147118.821204,XXXX,XXXX,-123.344683,51.024979,4553.039 m,4.04000,-5.57000,9.27000,T,1600,8.0,640
Filename,GPS Event,GPS Time,Weeks:Seconds,Line Number,Number in Line,Longitude,Latitude,Altitude,Pitch,Roll,Yaw,Yaw Type,ISO,Aperture,Shutter Speed 1/#
2096_147188.62838278C000616-52-50.628_NIR_65544_124390.IIQ,278,16:52:50.62838,2096:147188.62838,XXXX,XXXX,-123.305165,51.057766,4560.390 m,3.78000,21.23000,108.39000,T,1600,8.0,640
2096_147240.756939279C000616-53-42.756_NIR_65545_124391.IIQ,279,16:53:42.756939,2096:147240.756939,XXXX,XXXX,-123.293883,51.02574,4594.399 m,1.10000,9.38000,225.44000,T,3200,5.6,640
2096_147259.402098280C000616-54-01.402_NIR_65546_124392.IIQ,280,16:54:01.402098,2096:147259.402098,XXXX,XXXX,-123.309103,51.017639,4580.649 m,3.68000,-0.68000,245.14000,T,3200,8.0,800
2096_147281.602401281C000616-54-23.602_NIR_65547_124393.IIQ,281,16:54:23.602401,2096:147281.602401,XXXX,XXXX,-123.328714,51.009311,4579.900 m,4.21000,-0.48000,244.84000,T,3200,8.0,1000
2096_147286.606081282C000616-54-28.606_NIR_65548_124394.IIQ,282,16:54:28.606081,2096:147286.606081,XXXX,XXXX,-123.333112,51.007452,4588.180 m,3.97000,0.46000,245.16000,T,3200,8.0,800
2096_147291.612584283C000616-54-33.612_NIR_65549_124395.IIQ,283,16:54:33.612584,2096:147291.612584,XXXX,XXXX,-123.337478,51.005594,4590.779 m,2.61000,-0.14000,244.82001,T,3200,8.0,1250
2096_147296.612354284C000616-54-38.612_NIR_65550_124396.IIQ,284,16:54:38.612354,2096:147296.612354,XXXX,XXXX,-123.341866,51.003716,4585.780 m,2.43000,-0.56000,244.20000,T,3200,8.0,640
2096_147301.612113285C000616-54-43.612_NIR_65551_124397.IIQ,285,16:54:43.612113,2096:147301.612113,XXXX,XXXX,-123.346281,51.001798,4583.720 m,3.63000,-0.13000,244.28000,T,3200,8.0,1600
2096_147306.611881286C000616-54-48.611_NIR_65552_124398.IIQ,286,16:54:48.611881,2096:147306.611881,XXXX,XXXX,-123.350677,50.999877,4588.680 m,3.91000,-0.23000,243.89000,T,3200,6.3,640
2096_147311.612644287C000616-54-53.612_NIR_65553_124399.IIQ,287,16:54:53.612644,2096:147311.612644,XXXX,XXXX,-123.355039,50.997953,4591.699 m,3.16000,0.59000,243.95000,T,3200,8.0,1250
2096_147316.613114288C000616-54-58.613_NIR_65554_124400.IIQ,288,16:54:58.613114,2096:147316.613114,XXXX,XXXX,-123.359418,50.996039,4590.140 m,2.74000,-0.16000,243.95000,T,3200,8.0,1000
2096_147321.612861289C000616-55-03.612_NIR_65555_124401.IIQ,289,16:55:03.612861,2096:147321.612861,XXXX,XXXX,-123.363792,50.994078,4587.869 m,2.86000,-0.92000,242.96001,T,3200,8.0,1000
2096_147326.612935290C000616-55-08.612_NIR_65556_124402.IIQ,290,16:55:08.612935,2096:147326.612935,XXXX,XXXX,-123.368165,50.992085,4587.550 m,2.95000,0.01000,243.12000,T,3200,8.0,1000
2096_147331.603975291C000616-55-13.603_NIR_65557_124403.IIQ,291,16:55:13.603975,2096:147331.603975,XXXX,XXXX,-123.372544,50.990098,4588.069 m,3.15000,-0.18000,243.11000,T,3200,8.0,1000
2096_147336.60372292C000616-55-18.603_NIR_65558_124404.IIQ,292,16:55:18.60372,2096:147336.60372,XXXX,XXXX,-123.376927,50.988106,4589.750 m,3.43000,-0.89000,242.82001,T,3200,8.0,1000
2096_147341.603846293C000616-55-23.603_NIR_65559_124405.IIQ,293,16:55:23.603846,2096:147341.603846,XXXX,XXXX,-123.381282,50.986106,4592.369 m,3.39000,0.85000,242.75999,T,3200,8.0,1000
2096_147346.603611294C000616-55-28.603_NIR_65560_124406.IIQ,294,16:55:28.603611,2096:147346.603611,XXXX,XXXX,-123.385651,50.98414,4591.850 m,3.12000,0.09000,243.66000,T,2500,8.0,1000
2096_147351.602963295C000616-55-33.602_NIR_65561_124407.IIQ,295,16:55:33.602963,2096:147351.602963,XXXX,XXXX,-123.390043,50.982199,4592.779 m,2.65000,-0.49000,243.86000,T,2500,8.0,1000
2096_147356.603138296C000616-55-38.603_NIR_65562_124408.IIQ,296,16:55:38.603138,2096:147356.603138,XXXX,XXXX,-123.394464,50.980238,4581.799 m,0.93000,-0.08000,243.21001,T,2000,8.0,1000
2096_147361.603454297C000616-55-43.603_NIR_65563_124409.IIQ,297,16:55:43.603454,2096:147361.603454,XXXX,XXXX,-123.398954,50.978206,4569.990 m,2.00000,1.19000,242.84000,T,2000,8.0,1000
2096_147366.611662298C000616-55-48.611_NIR_65564_124410.IIQ,298,16:55:48.611662,2096:147366.611662,XXXX,XXXX,-123.403519,50.976174,4563.920 m,2.13000,0.59000,243.44000,T,2000,8.0,1000
2096_147371.602949299C000616-55-53.602_NIR_65565_124411.IIQ,299,16:55:53.602949,2096:147371.602949,XXXX,XXXX,-123.408121,50.974172,4559.049 m,2.25000,0.63000,244.02000,T,2000,8.0,1000
2096_147376.604191300C000616-55-58.604_NIR_65566_124412.IIQ,300,16:55:58.604191,2096:147376.604191,XXXX,XXXX,-123.412771,50.972188,4555.700 m,2.39000,0.52000,244.50000,T,2000,8.0,1000
2096_147381.603449301C000616-56-03.603_NIR_65567_124413.IIQ,301,16:56:03.603449,2096:147381.603449,XXXX,XXXX,-123.417448,50.970226,4554.090 m,2.64000,-0.64000,244.81000,T,2000,8.0,1000
2096_147386.603716302C000616-56-08.603_NIR_65568_124414.IIQ,302,16:56:08.603716,2096:147386.603716,XXXX,XXXX,-123.422113,50.968256,4554.409 m,2.91000,-0.36000,244.13000,T,2500,8.0,1000
2096_147391.603481303C000616-56-13.603_NIR_65569_124415.IIQ,303,16:56:13.603481,2096:147391.603481,XXXX,XXXX,-123.42675,50.966283,4555.679 m,3.04000,0.42000,244.39999,T,3200,8.0,800
2096_147396.603243304C000616-56-18.603_NIR_65570_124416.IIQ,304,16:56:18.603243,2096:147396.603243,XXXX,XXXX,-123.431366,50.964323,4556.840 m,3.09000,-1.02000,243.60001,T,2500,8.0,800
2096_147401.603448305C000616-56-23.603_NIR_65571_124417.IIQ,305,16:56:23.603448,2096:147401.603448,XXXX,XXXX,-123.435911,50.96231,4557.229 m,2.65000,0.29000,242.97000,T,2000,8.0,800
2096_147406.634771306C000616-56-28.634_NIR_65572_124418.IIQ,306,16:56:28.634771,2096:147406.634771,XXXX,XXXX,-123.440487,50.960286,4555.069 m,2.10000,-0.82000,243.09000,T,1600,8.0,800
2096_147411.602946307C000616-56-33.602_NIR_65573_124419.IIQ,307,16:56:33.602946,2096:147411.602946,XXXX,XXXX,-123.445018,50.958266,4550.680 m,1.88000,-0.86000,242.62000,T,1250,8.0,800
2096_147416.603697308C000616-56-38.603_NIR_65574_124420.IIQ,308,16:56:38.603697,2096:147416.603697,XXXX,XXXX,-123.449591,50.956197,4546.010 m,2.05000,0.24000,242.41000,T,1250,8.0,800
2096_147421.603068309C000616-56-43.603_NIR_65575_124421.IIQ,309,16:56:43.603068,2096:147421.603068,XXXX,XXXX,-123.454194,50.954129,4542.779 m,2.25000,0.16000,242.99001,T,1000,8.0,800
2096_147426.603196310C000616-56-48.603_NIR_65576_124422.IIQ,310,16:56:48.603196,2096:147426.603196,XXXX,XXXX,-123.458827,50.952074,4540.810 m,2.56000,-0.05000,243.03999,T,1000,8.0,800
2096_147431.603944311C000616-56-53.603_NIR_65577_124423.IIQ,311,16:56:53.603944,2096:147431.603944,XXXX,XXXX,-123.463466,50.950026,4540.220 m,2.73000,-0.62000,242.92000,T,1000,8.0,800
2096_147436.604362312C000616-56-58.604_NIR_65578_124424.IIQ,312,16:56:58.604362,2096:147436.604362,XXXX,XXXX,-123.468087,50.947968,4540.130 m,2.70000,-0.99000,242.47000,T,1000,8.0,800
2096_147441.603437313C000616-57-03.603_NIR_65579_124425.IIQ,313,16:57:03.603437,2096:147441.603437,XXXX,XXXX,-123.472672,50.945891,4543.550 m,5.28000,-0.63000,241.99001,T,1000,8.0,800
2096_147446.604187314C000616-57-08.604_NIR_65580_124426.IIQ,314,16:57:08.604187,2096:147446.604187,XXXX,XXXX,-123.4771,50.943815,4565.699 m,6.46000,0.17000,241.03999,T,1250,8.0,800
2096_147451.603937315C000616-57-13.603_NIR_65581_124427.IIQ,315,16:57:13.603937,2096:147451.603937,XXXX,XXXX,-123.481375,50.941777,4578.060 m,2.32000,3.85000,242.03000,T,1600,8.0,800
2096_147456.603415316C000616-57-18.603_NIR_65582_124428.IIQ,316,16:57:18.603415,2096:147456.603415,XXXX,XXXX,-123.485746,50.939807,4569.299 m,2.41000,0.00000,243.34000,T,1600,8.0,800
2096_147461.603437317C000616-57-23.603_NIR_65583_124429.IIQ,317,16:57:23.603437,2096:147461.603437,XXXX,XXXX,-123.490212,50.937852,4564.100 m,2.12000,-0.32000,243.50999,T,1600,8.0,800
2096_147466.603946318C000616-57-28.603_NIR_65584_124430.IIQ,318,16:57:28.603946,2096:147466.603946,XXXX,XXXX,-123.494724,50.935871,4557.250 m,2.24000,-0.39000,242.63000,T,1600,8.0,800
2096_147471.603929319C000616-57-33.603_NIR_65585_124431.IIQ,319,16:57:33.603929,2096:147471.603929,XXXX,XXXX,-123.499259,50.933861,4554.939 m,3.32000,-0.90000,242.88000,T,1600,8.0,800
2096_147476.603473320C000616-57-38.603_NIR_65586_124432.IIQ,320,16:57:38.603473,2096:147476.603473,XXXX,XXXX,-123.503785,50.931856,4557.170 m,3.20000,0.29000,243.12000,T,1600,8.0,800
2096_147481.603425321C000616-57-43.603_NIR_65587_124433.IIQ,321,16:57:43.603425,2096:147481.603425,XXXX,XXXX,-123.50831,50.929864,4557.449 m,2.71000,-0.87000,242.92999,T,1600,8.0,800
2096_147486.604322C000616-57-48.604_NIR_65588_124434.IIQ,322,16:57:48.604,2096:147486.604,XXXX,XXXX,-123.512828,50.927843,4555.569 m,2.43000,0.63000,242.63000,T,1600,8.0,800
2096_147491.603761323C000616-57-53.603_NIR_65589_124435.IIQ,323,16:57:53.603761,2096:147491.603761,XXXX,XXXX,-123.517368,50.92581,4553.010 m,2.39000,-0.28000,242.41000,T,1600,8.0,800
2096_147496.603825324C000616-57-58.603_NIR_65590_124436.IIQ,324,16:57:58.603825,2096:147496.603825,XXXX,XXXX,-123.521927,50.923763,4551.319 m,2.64000,0.76000,242.78999,T,1600,8.0,800
XXX_XXXXXX.XXXXXXEID-XXC0006XX-XX-XX.XXX_NIR_65591_124437.IIQ,0,XX:XX:XX.XXXXXX,XXX:XXXXXX.XXXXXX,XXXX,XXXX,,,,,,,,1600,8.0,800
2096_147506.60432325C000616-58-08.604_NIR_65592_124438.IIQ,325,16:58:08.60432,2096:147506.60432,XXXX,XXXX,-123.531094,50.91973,4554.220 m,3.56000,0.78000,243.42000,T,1600,8.0,800
2096_147511.604065326C000616-58-13.604_NIR_65593_124439.IIQ,326,16:58:13.604065,2096:147511.604065,XXXX,XXXX,-123.535658,50.917758,4557.940 m,3.42000,-0.15000,243.64000,T,1600,8.0,800
2096_147516.603814327C000616-58-18.603_NIR_65594_124440.IIQ,327,16:58:18.603814,2096:147516.603814,XXXX,XXXX,-123.540208,50.915804,4560.479 m,3.00000,0.70000,244.03000,T,1250,8.0,800
2096_147521.603562328C000616-58-23.603_NIR_65595_124441.IIQ,328,16:58:23.603562,2096:147521.603562,XXXX,XXXX,-123.544775,50.913872,4560.720 m,2.65000,-0.99000,244.06000,T,1250,8.0,800
2096_147526.604255329C000616-58-28.604_NIR_65596_124442.IIQ,329,16:58:28.604255,2096:147526.604255,XXXX,XXXX,-123.549342,50.911909,4558.880 m,2.35000,-0.69000,243.13000,T,1250,8.0,800
