Filename,GPS Event,GPS Time,Weeks:Seconds,Line Number,Number in Line,Longitude,Latitude,Altitude,Pitch,Roll,Yaw,Yaw Type,ISO,Aperture,Shutter Speed 1/#
1_RGB_110531.IIQ,1,14:58:47.403132,2120:53927.403132,XXXX,XXXX,-125.263339,49.946595,77.379 m,0.63000,-0.88000,217.99001,T,640,4.5,1000
2_RGB_110532.IIQ,2,14:58:51.444325,2120:53931.444325,XXXX,XXXX,-125.263507,49.946444,77.539 m,0.54000,-0.45000,211.96001,T,640,4.5,1000
3_RGB_110533.IIQ,3,15:56:07.349481,2120:57367.349481,XXXX,XXXX,-128.075649,51.636869,1115.530 m,3.39000,-0.67000,308.45001,T,640,4.5,1000
4_RGB_110534.IIQ,4,15:56:10.983992,2120:57370.983992,XXXX,XXXX,-128.078409,51.638186,1114.950 m,2.46000,-0.74000,308.09000,T,640,4.5,1000
5_RGB_110535.IIQ,5,15:56:14.627181,2120:57374.627181,XXXX,XXXX,-128.081196,51.639501,1110.640 m,1.61000,-0.86000,307.75000,T,640,4.5,1000
6_RGB_110536.IIQ,6,15:56:18.199026,2120:57378.199026,XXXX,XXXX,-128.083968,51.640793,1103.519 m,1.09000,-0.82000,307.38000,T,640,4.5,1000
7_RGB_110537.IIQ,7,15:56:21.740881,2120:57381.740881,XXXX,XXXX,-128.086763,51.642082,1095.290 m,1.10000,-0.35000,307.13000,T,640,4.5,1000
8_RGB_110538.IIQ,8,15:56:25.25074,2120:57385.25074,XXXX,XXXX,-128.089568,51.64337,1089.150 m,2.14000,0.05000,306.94000,T,640,4.5,1000
9_RGB_110539.IIQ,9,15:56:28.750597,2120:57388.750597,XXXX,XXXX,-128.092372,51.644656,1088.490 m,3.81000,-0.03000,307.01999,T,640,4.5,1000
10_RGB_110540.IIQ,10,15:56:32.274451,2120:57392.274451,XXXX,XXXX,-128.095157,51.645941,1094.310 m,5.07000,1.00000,307.89999,T,640,4.5,1000
11_RGB_110541.IIQ,11,15:56:35.879868,2120:57395.879868,XXXX,XXXX,-128.097923,51.647246,1103.830 m,5.68000,1.36000,308.57001,T,640,4.5,1000
12_RGB_110542.IIQ,12,15:56:39.573154,2120:57399.573154,XXXX,XXXX,-128.100663,51.648573,1113.070 m,5.19000,0.60000,309.23999,T,640,4.5,1000
13_RGB_110543.IIQ,13,15:56:43.341999,2120:57403.341999,XXXX,XXXX,-128.103395,51.649918,1118.370 m,4.05000,-0.11000,309.47000,T,640,4.5,1000
14_RGB_110544.IIQ,14,15:56:47.109847,2120:57407.109847,XXXX,XXXX,-128.106108,51.651259,1118.340 m,3.07000,0.07000,309.32999,T,640,4.5,1000
15_RGB_110545.IIQ,15,15:56:50.873692,2120:57410.873692,XXXX,XXXX,-128.108833,51.652604,1114.920 m,2.50000,-0.58000,309.12000,T,640,4.5,1000
16_RGB_110546.IIQ,16,15:56:54.604019,2120:57414.604019,XXXX,XXXX,-128.111579,51.653933,1110.150 m,2.66000,-0.10000,308.79999,T,640,4.5,1000
17_RGB_110547.IIQ,17,15:56:58.31385,2120:57418.31385,XXXX,XXXX,-128.114328,51.655264,1106.890 m,3.14000,-0.40000,309.38000,T,640,4.5,1000
18_RGB_110548.IIQ,18,15:57:02.002231,2120:57422.002231,XXXX,XXXX,-128.117066,51.65659,1105.960 m,3.41000,-0.80000,308.64999,T,640,4.5,1000
19_RGB_110549.IIQ,19,15:57:05.715079,2120:57425.715079,XXXX,XXXX,-128.119838,51.657909,1105.710 m,3.48000,-0.60000,308.39001,T,640,4.5,1000
20_RGB_110550.IIQ,20,15:57:09.411926,2120:57429.411926,XXXX,XXXX,-128.122592,51.659221,1105.279 m,3.31000,1.78000,309.25000,T,640,4.5,1000
21_RGB_110551.IIQ,21,15:57:13.122777,2120:57433.122777,XXXX,XXXX,-128.125331,51.660558,1104.220 m,3.19000,-1.04000,308.84000,T,640,4.5,1000
22_RGB_110552.IIQ,22,15:57:16.822623,2120:57436.822623,XXXX,XXXX,-128.128108,51.661862,1101.890 m,2.50000,-2.70000,307.20999,T,640,4.5,1000
23_RGB_110553.IIQ,23,15:57:20.495848,2120:57440.495848,XXXX,XXXX,-128.130934,51.663123,1097.160 m,1.99000,-0.86000,306.32999,T,640,4.5,1000
24_RGB_110554.IIQ,24,15:57:24.150681,2120:57444.150681,XXXX,XXXX,-128.133786,51.664381,1091.360 m,1.87000,5.25000,307.32999,T,640,4.5,1000
25_RGB_110555.IIQ,25,15:57:27.757171,2120:57447.757171,XXXX,XXXX,-128.136546,51.665699,1087.570 m,3.44000,1.77000,309.94000,T,640,4.5,1000
26_RGB_110556.IIQ,26,15:57:31.369022,2120:57451.369022,XXXX,XXXX,-128.139246,51.667056,1090.509 m,4.98000,-1.11000,310.10999,T,640,4.5,1000
27_RGB_110557.IIQ,27,15:57:35.041866,2120:57455.041866,XXXX,XXXX,-128.141984,51.668388,1097.549 m,5.21000,-0.54000,308.39001,T,640,4.5,1000
28_RGB_110558.IIQ,28,15:57:38.77902,2120:57458.77902,XXXX,XXXX,-128.144763,51.669688,1103.970 m,4.77000,-1.71000,307.64999,T,640,4.5,1000
29_RGB_110559.IIQ,29,15:57:42.558846,2120:57462.558846,XXXX,XXXX,-128.14758,51.670956,1107.230 m,4.14000,0.16000,306.10001,T,640,4.5,1000
30_RGB_110560.IIQ,30,15:57:46.346399,2120:57466.346399,XXXX,XXXX,-128.150378,51.672229,1108.600 m,4.11000,-0.25000,308.20001,T,640,4.5,1000
31_RGB_110561.IIQ,31,15:57:50.170237,2120:57470.170237,XXXX,XXXX,-128.153161,51.673532,1110.539 m,4.31000,-0.71000,307.45001,T,640,4.5,1000
32_RGB_110562.IIQ,32,15:57:54.003081,2120:57474.003081,XXXX,XXXX,-128.155945,51.674824,1112.230 m,4.15000,-0.68000,307.07001,T,640,4.5,1000
33_RGB_110563.IIQ,33,15:57:57.860923,2120:57477.860923,XXXX,XXXX,-128.158748,51.676113,1112.460 m,3.78000,0.83000,307.76001,T,640,4.5,1000
34_RGB_110564.IIQ,34,15:58:01.701982,2120:57481.701982,XXXX,XXXX,-128.16152,51.677413,1111.029 m,3.51000,1.06000,308.35999,T,640,4.5,1000
35_RGB_110565.IIQ,35,15:58:05.544805,2120:57485.544805,XXXX,XXXX,-128.164272,51.678742,1108.710 m,3.29000,1.04000,309.45999,T,640,4.5,1000
36_RGB_110566.IIQ,36,15:58:09.365636,2120:57489.365636,XXXX,XXXX,-128.166988,51.680095,1106.029 m,3.27000,-0.05000,309.72000,T,640,4.5,1000
37_RGB_110567.IIQ,37,16:02:49.776894,2120:57769.776894,XXXX,XXXX,-128.181014,51.65268,1047.410 m,1.93000,-1.50000,35.70000,T,640,4.5,1000
38_RGB_110568.IIQ,38,16:02:53.506806,2120:57773.506806,XXXX,XXXX,-128.179018,51.654443,1040.620 m,2.24000,2.56000,35.83000,T,640,4.5,1000
39_RGB_110569.IIQ,39,16:02:57.226588,2120:57777.226588,XXXX,XXXX,-128.176946,51.656195,1036.830 m,3.31000,0.63000,37.67000,T,640,4.5,1000
40_RGB_110570.IIQ,40,16:03:00.925473,2120:57780.925473,XXXX,XXXX,-128.174851,51.657921,1038.140 m,4.54000,-1.79000,37.22000,T,640,4.5,1000
41_RGB_110571.IIQ,41,16:03:04.663315,2120:57784.663315,XXXX,XXXX,-128.172793,51.659666,1042.370 m,4.62000,-0.87000,36.08000,T,640,4.5,1000
42_RGB_110572.IIQ,42,16:03:08.430148,2120:57788.430148,XXXX,XXXX,-128.170768,51.661416,1045.529 m,4.16000,1.19000,36.27000,T,640,4.5,1000
43_RGB_110573.IIQ,43,16:03:12.231986,2120:57792.231986,XXXX,XXXX,-128.168702,51.66316,1046.320 m,3.59000,-0.47000,37.08000,T,640,4.5,1000
44_RGB_110574.IIQ,44,16:03:16.029822,2120:57796.029822,XXXX,XXXX,-128.166634,51.664902,1044.680 m,3.21000,-0.56000,36.20000,T,640,4.5,1000
45_RGB_110575.IIQ,45,16:03:19.806663,2120:57799.806663,XXXX,XXXX,-128.164598,51.666653,1042.080 m,3.20000,-0.50000,35.88000,T,640,4.5,1000
46_RGB_110576.IIQ,46,16:03:23.571506,2120:57803.571506,XXXX,XXXX,-128.162575,51.668413,1040.170 m,3.44000,-0.05000,35.19000,T,640,4.5,1000
47_RGB_110577.IIQ,47,16:03:27.325348,2120:57807.325348,XXXX,XXXX,-128.160558,51.670168,1039.950 m,3.92000,-0.29000,35.89000,T,640,4.5,1000
48_RGB_110578.IIQ,48,16:03:31.105189,2120:57811.105189,XXXX,XXXX,-128.158529,51.671928,1041.480 m,4.28000,0.65000,35.73000,T,640,4.5,1000
49_RGB_110579.IIQ,49,16:03:34.90603,2120:57814.90603,XXXX,XXXX,-128.156479,51.673678,1044.009 m,4.24000,1.64000,36.77000,T,640,4.5,1000
50_RGB_110580.IIQ,50,16:03:38.729872,2120:57818.729872,XXXX,XXXX,-128.154389,51.67541,1046.430 m,4.24000,-0.99000,37.16000,T,640,4.5,1000
51_RGB_110581.IIQ,51,16:03:42.571709,2120:57822.571709,XXXX,XXXX,-128.152311,51.677148,1047.740 m,4.11000,-0.67000,36.52000,T,640,4.5,1000
52_RGB_110582.IIQ,52,16:03:46.41655,2120:57826.41655,XXXX,XXXX,-128.150238,51.678882,1048.279 m,3.81000,-0.89000,36.95000,T,640,4.5,1000
53_RGB_110583.IIQ,53,16:03:50.283399,2120:57830.283399,XXXX,XXXX,-128.148173,51.680636,1047.200 m,3.41000,-1.13000,35.51000,T,640,4.5,1000
54_RGB_110584.IIQ,54,16:03:54.10323,2120:57834.10323,XXXX,XXXX,-128.146169,51.682395,1044.789 m,3.15000,1.76000,35.92000,T,640,4.5,1000
55_RGB_110585.IIQ,55,16:03:57.912071,2120:57837.912071,XXXX,XXXX,-128.144103,51.684134,1042.059 m,3.03000,2.07000,38.10000,T,640,4.5,1000
56_RGB_110586.IIQ,56,16:04:01.709915,2120:57841.709915,XXXX,XXXX,-128.14196,51.685845,1039.630 m,3.40000,0.44000,39.17000,T,640,4.5,1000
57_RGB_110587.IIQ,57,16:04:05.487759,2120:57845.487759,XXXX,XXXX,-128.139826,51.68755,1039.079 m,3.89000,-0.40000,37.67000,T,640,4.5,1000
58_RGB_110588.IIQ,58,16:04:09.288604,2120:57849.288604,XXXX,XXXX,-128.137703,51.689269,1040.490 m,4.29000,-0.81000,38.21000,T,640,4.5,1000
59_RGB_110589.IIQ,59,16:04:13.088447,2120:57853.088447,XXXX,XXXX,-128.135613,51.690984,1043.269 m,4.73000,-1.56000,36.89000,T,640,4.5,1000
60_RGB_110590.IIQ,60,16:04:16.968286,2120:57856.968286,XXXX,XXXX,-128.133545,51.692739,1047.170 m,4.77000,1.05000,36.54000,T,640,4.5,1000
61_RGB_110591.IIQ,61,16:04:20.84713,2120:57860.84713,XXXX,XXXX,-128.131473,51.694467,1050.750 m,4.32000,-1.83000,37.48000,T,640,4.5,1000
62_RGB_110592.IIQ,62,16:04:24.769962,2120:57864.769962,XXXX,XXXX,-128.129416,51.696222,1050.799 m,3.39000,-0.32000,35.86000,T,640,4.5,1000
63_RGB_110593.IIQ,63,16:04:28.643798,2120:57868.643798,XXXX,XXXX,-128.12742,51.697985,1046.950 m,2.64000,1.03000,35.73000,T,640,4.5,1000
64_RGB_110594.IIQ,64,16:04:32.498642,2120:57872.498642,XXXX,XXXX,-128.125397,51.699753,1040.869 m,2.37000,-0.23000,36.62000,T,640,4.5,1000
65_RGB_110595.IIQ,65,16:04:36.29448,2120:57876.29448,XXXX,XXXX,-128.123376,51.701514,1035.039 m,2.52000,-0.67000,36.29000,T,640,4.5,1000
66_RGB_110596.IIQ,66,16:04:40.058327,2120:57880.058327,XXXX,XXXX,-128.121358,51.703283,1031.049 m,3.03000,0.03000,36.43000,T,640,4.5,1000
67_RGB_110597.IIQ,67,16:04:43.792171,2120:57883.792171,XXXX,XXXX,-128.119333,51.705036,1030.019 m,3.63000,1.55000,37.15000,T,640,4.5,1000
68_RGB_110598.IIQ,68,16:04:47.557014,2120:57887.557014,XXXX,XXXX,-128.117249,51.706779,1031.549 m,4.21000,0.31000,38.18000,T,640,4.5,1000
69_RGB_110599.IIQ,69,16:04:51.315859,2120:57891.315859,XXXX,XXXX,-128.115168,51.7085,1035.169 m,4.66000,-1.33000,37.30000,T,640,4.5,1000
70_RGB_110600.IIQ,70,16:07:15.626893,2120:58035.626893,XXXX,XXXX,-128.101645,51.710129,1096.700 m,5.42000,-0.19000,215.74001,T,640,4.5,1000
71_RGB_110601.IIQ,71,16:07:19.639784,2120:58039.639784,XXXX,XXXX,-128.103638,51.708359,1099.700 m,5.60000,0.97000,215.80000,T,640,4.5,1000
72_RGB_110602.IIQ,72,16:07:23.647605,2120:58043.647605,XXXX,XXXX,-128.105645,51.706596,1103.339 m,5.60000,-0.43000,216.30000,T,640,4.5,1000
73_RGB_110603.IIQ,73,16:07:27.660429,2120:58047.660429,XXXX,XXXX,-128.107654,51.704829,1106.609 m,5.42000,0.72000,215.99001,T,640,4.5,1000
74_RGB_110604.IIQ,74,16:07:31.668258,2120:58051.668258,XXXX,XXXX,-128.109688,51.703073,1109.289 m,5.15000,2.03000,217.58000,T,640,4.5,1000
75_RGB_110605.IIQ,75,16:07:35.669071,2120:58055.669071,XXXX,XXXX,-128.111791,51.701344,1111.549 m,5.09000,0.69000,218.96001,T,640,4.5,1000
76_RGB_110606.IIQ,76,16:07:39.643919,2120:58059.643919,XXXX,XXXX,-128.113914,51.699634,1114.160 m,5.28000,-0.73000,218.78000,T,640,4.5,1000
77_RGB_110607.IIQ,77,16:07:43.618748,2120:58063.618748,XXXX,XXXX,-128.116032,51.697916,1117.019 m,5.33000,0.86000,218.75000,T,640,4.5,1000
78_RGB_110608.IIQ,78,16:07:47.587581,2120:58067.587581,XXXX,XXXX,-128.118165,51.696206,1119.819 m,5.35000,-1.93000,218.80000,T,640,4.5,1000
79_RGB_110609.IIQ,79,16:07:51.553419,2120:58071.553419,XXXX,XXXX,-128.120261,51.694477,1122.420 m,5.28000,-0.33000,217.84000,T,640,4.5,1000
80_RGB_110610.IIQ,80,16:07:55.499252,2120:58075.499252,XXXX,XXXX,-128.122337,51.692749,1124.849 m,5.12000,-0.97000,218.39999,T,640,4.5,1000
81_RGB_110611.IIQ,81,16:07:59.475086,2120:58079.475086,XXXX,XXXX,-128.124424,51.690998,1126.920 m,4.95000,-0.38000,217.60001,T,640,4.5,1000
82_RGB_110612.IIQ,82,16:08:03.395922,2120:58083.395922,XXXX,XXXX,-128.126463,51.689251,1128.759 m,4.77000,1.81000,217.98000,T,640,4.5,1000
83_RGB_110613.IIQ,83,16:08:07.312761,2120:58087.312761,XXXX,XXXX,-128.128545,51.687516,1130.180 m,4.79000,-0.49000,218.63000,T,640,4.5,1000
84_RGB_110614.IIQ,84,16:08:11.204599,2120:58091.204599,XXXX,XXXX,-128.13062,51.685783,1131.569 m,4.13000,-0.22000,217.83000,T,640,4.5,1000
85_RGB_110615.IIQ,85,16:08:15.065438,2120:58095.065438,XXXX,XXXX,-128.132656,51.684028,1130.009 m,3.04000,-0.56000,217.27000,T,640,4.5,1000
86_RGB_110616.IIQ,86,16:08:18.860281,2120:58098.860281,XXXX,XXXX,-128.13468,51.682268,1124.920 m,2.30000,0.77000,217.28000,T,640,4.5,1000
87_RGB_110617.IIQ,87,16:08:22.597128,2120:58102.597128,XXXX,XXXX,-128.136739,51.680511,1119.180 m,2.29000,1.97000,218.30000,T,640,4.5,1000
88_RGB_110618.IIQ,88,16:08:26.250974,2120:58106.250974,XXXX,XXXX,-128.138837,51.678787,1114.750 m,3.09000,-0.21000,219.05000,T,640,4.5,1000
89_RGB_110619.IIQ,89,16:08:29.869821,2120:58109.869821,XXXX,XXXX,-128.140921,51.67706,1114.480 m,4.18000,0.14000,218.17999,T,640,4.5,1000
90_RGB_110620.IIQ,90,16:08:33.50467,2120:58113.50467,XXXX,XXXX,-128.143005,51.675328,1119.130 m,5.35000,-0.44000,218.22000,T,640,4.5,1000
91_RGB_110621.IIQ,91,16:08:37.195518,2120:58117.195518,XXXX,XXXX,-128.145078,51.673581,1127.730 m,6.07000,-0.09000,217.70000,T,640,4.5,1000
92_RGB_110622.IIQ,92,16:08:40.922366,2120:58120.922366,XXXX,XXXX,-128.147131,51.671846,1137.720 m,6.23000,0.40000,217.77000,T,640,4.5,1000
93_RGB_110623.IIQ,93,16:08:44.725207,2120:58124.725207,XXXX,XXXX,-128.149206,51.670112,1146.799 m,5.74000,-0.44000,218.56000,T,640,4.5,1000
94_RGB_110624.IIQ,94,16:08:48.57005,2120:58128.57005,XXXX,XXXX,-128.151286,51.668375,1151.870 m,3.56000,-0.20000,218.23000,T,640,4.5,1000
95_RGB_110625.IIQ,95,16:08:52.376891,2120:58132.376891,XXXX,XXXX,-128.15336,51.666634,1146.049 m,0.34000,1.31000,218.31000,T,640,4.5,1000
96_RGB_110626.IIQ,96,16:08:56.052741,2120:58136.052741,XXXX,XXXX,-128.155458,51.664908,1130.680 m,-0.88000,0.06000,218.78999,T,640,4.5,1000
97_RGB_110627.IIQ,97,16:08:59.575595,2120:58139.575595,XXXX,XXXX,-128.15755,51.663185,1114.799 m,-0.45000,-3.48000,217.58000,T,640,4.5,1000
98_RGB_110628.IIQ,98,16:09:03.008453,2120:58143.008453,XXXX,XXXX,-128.159574,51.661417,1102.840 m,0.54000,1.12000,216.25999,T,640,4.5,1000
99_RGB_110629.IIQ,99,16:09:06.37531,2120:58146.37531,XXXX,XXXX,-128.161588,51.659648,1097.810 m,2.38000,0.11000,216.67000,T,640,4.5,1000
100_RGB_110630.IIQ,100,16:09:09.744786,2120:58149.744786,XXXX,XXXX,-128.163618,51.65788,1099.080 m,3.44000,-0.72000,216.84000,T,640,4.5,1000
101_RGB_110631.IIQ,101,16:09:13.108033,2120:58153.108033,XXXX,XXXX,-128.165622,51.656124,1104.160 m,4.19000,-0.47000,216.46001,T,640,4.5,1000
102_RGB_110632.IIQ,102,16:09:16.541887,2120:58156.541887,XXXX,XXXX,-128.167634,51.654348,1111.269 m,4.45000,-0.59000,216.33000,T,640,4.5,1000
103_RGB_110633.IIQ,103,16:09:19.996743,2120:58159.996743,XXXX,XXXX,-128.169624,51.652581,1118.220 m,4.42000,2.05000,216.14999,T,640,4.5,1000
104_RGB_110634.IIQ,104,16:09:23.5016,2120:58163.5016,XXXX,XXXX,-128.171647,51.650821,1124.720 m,4.49000,0.77000,217.16000,T,640,4.5,1000
105_RGB_110635.IIQ,105,16:09:27.035452,2120:58167.035452,XXXX,XXXX,-128.173688,51.649075,1130.340 m,4.20000,-0.87000,217.64999,T,640,4.5,1000
106_RGB_110636.IIQ,106,16:09:30.604305,2120:58170.604305,XXXX,XXXX,-128.175723,51.647316,1134.000 m,3.63000,-0.59000,216.61000,T,640,4.5,1000
107_RGB_110637.IIQ,107,16:09:34.168156,2120:58174.168156,XXXX,XXXX,-128.177732,51.645553,1135.200 m,3.13000,1.78000,217.39999,T,640,4.5,1000
108_RGB_110638.IIQ,108,16:12:07.437826,2120:58327.437826,XXXX,XXXX,-128.176356,51.63717,1128.869 m,3.83000,-0.76000,35.72000,T,640,4.5,1000
109_RGB_110639.IIQ,109,16:12:10.906681,2120:58330.906681,XXXX,XXXX,-128.174341,51.638924,1132.250 m,2.90000,0.35000,35.20000,T,640,4.5,1000
110_RGB_110640.IIQ,110,16:12:14.405538,2120:58334.405538,XXXX,XXXX,-128.172301,51.640687,1131.849 m,2.31000,0.68000,36.34000,T,640,4.5,1000
111_RGB_110641.IIQ,111,16:12:17.872394,2120:58337.872394,XXXX,XXXX,-128.170253,51.642432,1129.799 m,2.17000,-0.75000,35.83000,T,640,4.5,1000
112_RGB_110642.IIQ,112,16:12:21.323248,2120:58341.323248,XXXX,XXXX,-128.168225,51.644186,1128.029 m,2.50000,-0.05000,35.60000,T,640,4.5,1000
113_RGB_110643.IIQ,113,16:12:24.770107,2120:58344.770107,XXXX,XXXX,-128.166189,51.645939,1128.060 m,2.83000,2.85000,36.51000,T,640,4.5,1000
114_RGB_110644.IIQ,114,16:12:28.229965,2120:58348.229965,XXXX,XXXX,-128.1641,51.647675,1129.080 m,3.16000,-0.85000,36.77000,T,640,4.5,1000
115_RGB_110645.IIQ,115,16:12:31.689819,2120:58351.689819,XXXX,XXXX,-128.162023,51.64941,1130.530 m,3.31000,0.01000,36.58000,T,640,4.5,1000
116_RGB_110646.IIQ,116,16:12:35.162678,2120:58355.162678,XXXX,XXXX,-128.159948,51.651144,1132.730 m,3.35000,-0.56000,36.63000,T,640,4.5,1000
117_RGB_110647.IIQ,117,16:12:38.654531,2120:58358.654531,XXXX,XXXX,-128.157878,51.652885,1134.509 m,2.99000,-0.65000,36.24000,T,640,4.5,1000
118_RGB_110648.IIQ,118,16:12:42.142387,2120:58362.142387,XXXX,XXXX,-128.155838,51.654633,1134.769 m,2.71000,-1.50000,35.66000,T,640,4.5,1000
119_RGB_110649.IIQ,119,16:12:45.632243,2120:58365.632243,XXXX,XXXX,-128.153846,51.656406,1133.910 m,2.51000,1.66000,34.44000,T,640,4.5,1000
120_RGB_110650.IIQ,120,16:12:49.119864,2120:58369.119864,XXXX,XXXX,-128.151836,51.658178,1132.340 m,2.15000,4.23000,36.28000,T,640,4.5,1000
121_RGB_110651.IIQ,121,16:12:52.585952,2120:58372.585952,XXXX,XXXX,-128.149741,51.659906,1129.480 m,1.84000,0.64000,37.99000,T,640,4.5,1000
122_RGB_110652.IIQ,122,16:12:56.024811,2120:58376.024811,XXXX,XXXX,-128.147611,51.661614,1125.779 m,1.81000,-0.63000,38.03000,T,640,4.5,1000
123_RGB_110653.IIQ,123,16:12:59.45367,2120:58379.45367,XXXX,XXXX,-128.145478,51.663327,1122.670 m,2.26000,0.47000,37.95000,T,640,4.5,1000
124_RGB_110654.IIQ,124,16:13:02.853525,2120:58382.853525,XXXX,XXXX,-128.143358,51.665029,1121.870 m,2.87000,-2.49000,37.46000,T,640,4.5,1000
125_RGB_110655.IIQ,125,16:13:06.293386,2120:58386.293386,XXXX,XXXX,-128.141261,51.666766,1122.920 m,3.08000,-0.42000,36.88000,T,640,4.5,1000
126_RGB_110656.IIQ,126,16:13:09.714929,2120:58389.714929,XXXX,XXXX,-128.139195,51.668491,1124.870 m,3.21000,0.25000,36.78000,T,640,4.5,1000
127_RGB_110657.IIQ,127,16:13:13.19577,2120:58393.19577,XXXX,XXXX,-128.137093,51.670233,1127.140 m,3.16000,1.05000,37.19000,T,640,4.5,1000
128_RGB_110658.IIQ,128,16:13:16.656955,2120:58396.656955,XXXX,XXXX,-128.134987,51.671945,1128.809 m,3.12000,-0.62000,37.46000,T,640,4.5,1000
129_RGB_110659.IIQ,129,16:13:20.135808,2120:58400.135808,XXXX,XXXX,-128.132901,51.673674,1130.019 m,3.00000,-2.21000,35.63000,T,640,4.5,1000
130_RGB_110660.IIQ,130,16:13:23.627299,2120:58403.627299,XXXX,XXXX,-128.130876,51.675435,1130.549 m,2.80000,-0.49000,35.36000,T,640,4.5,1000
131_RGB_110661.IIQ,131,16:13:27.127519,2120:58407.127519,XXXX,XXXX,-128.128861,51.677208,1130.210 m,2.43000,0.67000,35.18000,T,640,4.5,1000
132_RGB_110662.IIQ,132,16:13:30.593379,2120:58410.593379,XXXX,XXXX,-128.126843,51.67896,1128.430 m,2.17000,2.33000,36.09000,T,640,4.5,1000
133_RGB_110663.IIQ,133,16:13:34.059829,2120:58414.059829,XXXX,XXXX,-128.124757,51.680694,1126.110 m,2.13000,3.84000,37.66000,T,640,4.5,1000
134_RGB_110664.IIQ,134,16:13:37.509673,2120:58417.509673,XXXX,XXXX,-128.122621,51.682404,1125.069 m,2.93000,-3.10000,36.82000,T,640,4.5,1000
135_RGB_110665.IIQ,135,16:13:40.970946,2120:58420.970946,XXXX,XXXX,-128.120547,51.684147,1127.420 m,3.85000,1.00000,36.06000,T,640,4.5,1000
136_RGB_110666.IIQ,136,16:13:44.444803,2120:58424.444803,XXXX,XXXX,-128.118478,51.685877,1133.740 m,4.63000,-0.03000,36.81000,T,640,4.5,1000
137_RGB_110667.IIQ,137,16:13:47.983655,2120:58427.983655,XXXX,XXXX,-128.116401,51.687617,1141.299 m,4.40000,-3.89000,35.45000,T,640,4.5,1000
138_RGB_110668.IIQ,138,16:13:51.550508,2120:58431.550508,XXXX,XXXX,-128.114403,51.689384,1146.230 m,3.57000,0.17000,33.68000,T,640,4.5,1000
139_RGB_110669.IIQ,139,16:13:55.129882,2120:58435.129882,XXXX,XXXX,-128.11241,51.691156,1147.529 m,2.49000,0.68000,34.70000,T,640,4.5,1000
140_RGB_110670.IIQ,140,16:13:58.693722,2120:58438.693722,XXXX,XXXX,-128.110386,51.692918,1144.349 m,1.69000,0.21000,35.09000,T,640,4.5,1000
141_RGB_110671.IIQ,141,16:14:02.211061,2120:58442.211061,XXXX,XXXX,-128.108352,51.694672,1138.700 m,1.32000,-0.59000,35.62000,T,640,4.5,1000
142_RGB_110672.IIQ,142,16:14:05.698916,2120:58445.698916,XXXX,XXXX,-128.106315,51.696437,1132.619 m,1.46000,-0.36000,35.52000,T,640,4.5,1000
143_RGB_110673.IIQ,143,16:14:09.124776,2120:58449.124776,XXXX,XXXX,-128.104289,51.698188,1127.950 m,1.99000,0.57000,36.03000,T,640,4.5,1000
144_RGB_110674.IIQ,144,16:14:12.554093,2120:58452.554093,XXXX,XXXX,-128.102236,51.699942,1125.730 m,2.69000,-0.44000,35.90000,T,640,4.5,1000
145_RGB_110675.IIQ,145,16:14:15.983495,2120:58455.983495,XXXX,XXXX,-128.100183,51.701696,1126.099 m,3.17000,-0.10000,36.27000,T,640,4.5,1000
146_RGB_110676.IIQ,146,16:14:19.404356,2120:58459.404356,XXXX,XXXX,-128.098139,51.703434,1128.119 m,3.27000,0.48000,36.33000,T,640,4.5,1000
147_RGB_110677.IIQ,147,16:14:22.853215,2120:58462.853215,XXXX,XXXX,-128.096076,51.705172,1130.349 m,3.08000,0.23000,36.88000,T,640,4.5,1000
148_RGB_110678.IIQ,148,16:14:26.345074,2120:58466.345074,XXXX,XXXX,-128.093984,51.706921,1131.450 m,2.72000,-0.42000,36.68000,T,640,4.5,1000
149_RGB_110679.IIQ,149,16:14:29.804308,2120:58469.804308,XXXX,XXXX,-128.091941,51.708668,1131.089 m,2.45000,-0.14000,35.73000,T,640,4.5,1000
150_RGB_110680.IIQ,150,16:16:50.83709,2120:58610.83709,XXXX,XXXX,-128.084553,51.704995,1111.549 m,1.45000,-0.16000,215.96001,T,640,4.5,1000
151_RGB_110681.IIQ,151,16:16:54.184953,2120:58614.184953,XXXX,XXXX,-128.086557,51.703236,1107.259 m,1.69000,2.02000,217.03999,T,640,4.5,1000
152_RGB_110682.IIQ,152,16:16:57.552818,2120:58617.552818,XXXX,XXXX,-128.08863,51.701477,1104.950 m,2.41000,1.06000,217.86000,T,640,4.5,1000
153_RGB_110683.IIQ,153,16:17:00.890679,2120:58620.890679,XXXX,XXXX,-128.09071,51.699746,1105.259 m,2.87000,-0.94000,217.92999,T,640,4.5,1000
154_RGB_110684.IIQ,154,16:17:04.23354,2120:58624.23354,XXXX,XXXX,-128.092772,51.698011,1107.069 m,3.16000,-1.77000,216.95000,T,640,4.5,1000
155_RGB_110685.IIQ,155,16:17:07.603405,2120:58627.603405,XXXX,XXXX,-128.094811,51.696258,1109.629 m,3.17000,2.60000,217.03000,T,640,4.5,1000
156_RGB_110686.IIQ,156,16:17:10.994029,2120:58630.994029,XXXX,XXXX,-128.096891,51.69452,1111.519 m,2.87000,0.77000,218.08000,T,640,4.5,1000
157_RGB_110687.IIQ,157,16:17:14.373125,2120:58634.373125,XXXX,XXXX,-128.098984,51.692804,1111.619 m,2.55000,0.82000,218.53000,T,640,4.5,1000
158_RGB_110688.IIQ,158,16:17:17.781985,2120:58637.781985,XXXX,XXXX,-128.101116,51.691081,1110.259 m,2.13000,-0.76000,218.46001,T,640,4.5,1000
159_RGB_110689.IIQ,159,16:17:21.151844,2120:58641.151844,XXXX,XXXX,-128.103213,51.689363,1107.589 m,1.91000,-0.68000,217.52000,T,640,4.5,1000
160_RGB_110690.IIQ,160,16:17:24.528708,2120:58644.528708,XXXX,XXXX,-128.105299,51.687619,1104.430 m,1.98000,-0.31000,217.85001,T,640,4.5,1000
161_RGB_110691.IIQ,161,16:17:27.867568,2120:58647.867568,XXXX,XXXX,-128.107358,51.685883,1101.529 m,2.06000,-0.89000,216.89000,T,640,4.5,1000
162_RGB_110692.IIQ,162,16:17:31.216433,2120:58651.216433,XXXX,XXXX,-128.109406,51.684127,1099.400 m,2.16000,1.41000,217.21001,T,640,4.5,1000
163_RGB_110693.IIQ,163,16:17:34.535292,2120:58654.535292,XXXX,XXXX,-128.111458,51.682392,1098.759 m,2.83000,0.59000,217.62000,T,640,4.5,1000
164_RGB_110694.IIQ,164,16:17:37.886812,2120:58657.886812,XXXX,XXXX,-128.113535,51.680651,1100.670 m,3.49000,-0.29000,217.63000,T,640,4.5,1000
165_RGB_110695.IIQ,165,16:17:41.249016,2120:58661.249016,XXXX,XXXX,-128.115596,51.678915,1105.049 m,3.84000,-0.88000,217.34000,T,640,4.5,1000
166_RGB_110696.IIQ,166,16:17:44.670874,2120:58664.670874,XXXX,XXXX,-128.117664,51.67716,1109.910 m,3.60000,1.02000,217.59000,T,640,4.5,1000
167_RGB_110697.IIQ,167,16:17:48.090732,2120:58668.090732,XXXX,XXXX,-128.119738,51.675427,1113.009 m,3.17000,0.33000,218.10001,T,640,4.5,1000
168_RGB_110698.IIQ,168,16:17:51.510591,2120:58671.510591,XXXX,XXXX,-128.121818,51.673705,1113.920 m,2.79000,0.58000,218.16000,T,640,4.5,1000
169_RGB_110699.IIQ,169,16:17:54.949447,2120:58674.949447,XXXX,XXXX,-128.123909,51.671972,1113.680 m,2.59000,-0.56000,217.53000,T,640,4.5,1000
170_RGB_110700.IIQ,170,16:17:58.369307,2120:58678.369307,XXXX,XXXX,-128.125963,51.67023,1113.000 m,2.47000,-0.73000,216.83000,T,640,4.5,1000
171_RGB_110701.IIQ,171,16:18:01.798726,2120:58681.798726,XXXX,XXXX,-128.128006,51.668468,1112.160 m,2.46000,-0.36000,216.62000,T,640,4.5,1000
172_RGB_110702.IIQ,172,16:18:05.197022,2120:58685.197022,XXXX,XXXX,-128.130022,51.666711,1111.460 m,2.51000,-0.83000,216.28999,T,640,4.5,1000
173_RGB_110703.IIQ,173,16:18:08.609417,2120:58688.609417,XXXX,XXXX,-128.132026,51.664932,1111.090 m,2.68000,0.53000,216.09000,T,640,4.5,1000
174_RGB_110704.IIQ,174,16:18:11.996264,2120:58691.996264,XXXX,XXXX,-128.134015,51.663167,1111.580 m,2.91000,-0.84000,216.22000,T,640,4.5,1000
175_RGB_110705.IIQ,175,16:18:15.408594,2120:58695.408594,XXXX,XXXX,-128.136001,51.661384,1112.650 m,3.08000,-0.43000,215.86000,T,640,4.5,1000
176_RGB_110706.IIQ,176,16:18:18.82645,2120:58698.82645,XXXX,XXXX,-128.137978,51.659598,1114.320 m,3.02000,4.44000,217.21001,T,640,4.5,1000
177_RGB_110707.IIQ,177,16:18:22.234315,2120:58702.234315,XXXX,XXXX,-128.140029,51.657861,1116.050 m,3.10000,0.61000,218.69000,T,640,4.5,1000
178_RGB_110708.IIQ,178,16:18:25.665173,2120:58705.665173,XXXX,XXXX,-128.142126,51.656133,1117.700 m,3.12000,-0.35000,218.66000,T,640,4.5,1000
179_RGB_110709.IIQ,179,16:18:29.106488,2120:58709.106488,XXXX,XXXX,-128.14423,51.654406,1119.200 m,3.09000,-0.59000,218.50000,T,640,4.5,1000
180_RGB_110710.IIQ,180,16:18:32.544892,2120:58712.544892,XXXX,XXXX,-128.14632,51.652679,1120.160 m,3.04000,-1.50000,217.89999,T,640,4.5,1000
181_RGB_110711.IIQ,181,16:18:35.984752,2120:58715.984752,XXXX,XXXX,-128.148366,51.650932,1120.810 m,2.91000,1.03000,216.98000,T,640,4.5,1000
182_RGB_110712.IIQ,182,16:18:39.43261,2120:58719.43261,XXXX,XXXX,-128.150429,51.649187,1121.140 m,2.76000,2.05000,218.41000,T,640,4.5,1000
183_RGB_110713.IIQ,183,16:18:42.863472,2120:58722.863472,XXXX,XXXX,-128.152536,51.647474,1120.960 m,2.66000,0.60000,219.17000,T,640,4.5,1000
184_RGB_110714.IIQ,184,16:18:46.301704,2120:58726.301704,XXXX,XXXX,-128.154672,51.645766,1120.320 m,2.64000,-0.99000,219.10001,T,640,4.5,1000
185_RGB_110715.IIQ,185,16:18:49.74155,2120:58729.74155,XXXX,XXXX,-128.156801,51.644048,1119.690 m,2.70000,-0.40000,218.62000,T,640,4.5,1000
186_RGB_110716.IIQ,186,16:18:53.180396,2120:58733.180396,XXXX,XXXX,-128.158902,51.642313,1119.570 m,2.77000,-0.11000,217.82001,T,640,4.5,1000
187_RGB_110717.IIQ,187,16:18:56.591904,2120:58736.591904,XXXX,XXXX,-128.160951,51.640576,1119.750 m,2.89000,-0.78000,217.25999,T,640,4.5,1000
188_RGB_110718.IIQ,188,16:19:00.019765,2120:58740.019765,XXXX,XXXX,-128.162985,51.638821,1120.399 m,3.03000,-0.69000,216.92000,T,640,4.5,1000
189_RGB_110719.IIQ,189,16:19:03.440935,2120:58743.440935,XXXX,XXXX,-128.165003,51.637068,1121.289 m,3.09000,0.52000,217.14999,T,640,4.5,1000
190_RGB_110720.IIQ,190,16:19:06.908781,2120:58746.908781,XXXX,XXXX,-128.167061,51.635303,1122.389 m,3.07000,1.59000,217.75000,T,640,4.5,1000
191_RGB_110721.IIQ,191,16:19:10.328625,2120:58750.328625,XXXX,XXXX,-128.169127,51.633584,1123.389 m,2.99000,1.69000,218.86000,T,640,4.5,1000
192_RGB_110722.IIQ,192,16:21:28.322394,2120:58888.322394,XXXX,XXXX,-128.161384,51.630314,1115.970 m,2.95000,0.52000,35.76000,T,640,4.5,1000
193_RGB_110723.IIQ,193,16:21:31.810491,2120:58891.810491,XXXX,XXXX,-128.159354,51.632064,1116.069 m,2.95000,0.22000,35.79000,T,640,4.5,1000
194_RGB_110724.IIQ,194,16:21:35.321346,2120:58895.321346,XXXX,XXXX,-128.157307,51.63382,1116.419 m,3.00000,-0.89000,36.09000,T,640,4.5,1000
195_RGB_110725.IIQ,195,16:21:38.821198,2120:58898.821198,XXXX,XXXX,-128.155278,51.635575,1116.859 m,2.96000,-0.02000,35.54000,T,640,4.5,1000
196_RGB_110726.IIQ,196,16:21:42.341055,2120:58902.341055,XXXX,XXXX,-128.153238,51.637337,1117.369 m,2.93000,0.16000,36.11000,T,640,4.5,1000
197_RGB_110727.IIQ,197,16:21:45.819905,2120:58905.819905,XXXX,XXXX,-128.151208,51.639071,1117.799 m,2.97000,0.00000,36.46000,T,640,4.5,1000
198_RGB_110728.IIQ,198,16:21:49.359761,2120:58909.359761,XXXX,XXXX,-128.14914,51.640833,1118.569 m,3.08000,0.05000,36.00000,T,640,4.5,1000
199_RGB_110729.IIQ,199,16:21:52.860615,2120:58912.860615,XXXX,XXXX,-128.147098,51.642572,1119.840 m,3.18000,0.57000,36.44000,T,640,4.5,1000
200_RGB_110730.IIQ,200,16:21:56.38647,2120:58916.38647,XXXX,XXXX,-128.145026,51.64431,1121.450 m,3.10000,0.72000,36.83000,T,640,4.5,1000
201_RGB_110731.IIQ,201,16:21:59.919322,2120:58919.919322,XXXX,XXXX,-128.142933,51.646039,1122.690 m,2.94000,0.09000,37.09000,T,640,4.5,1000
202_RGB_110732.IIQ,202,16:22:03.459796,2120:58923.459796,XXXX,XXXX,-128.14083,51.64777,1122.910 m,2.72000,-0.72000,36.84000,T,640,4.5,1000
203_RGB_110733.IIQ,203,16:22:06.986031,2120:58926.986031,XXXX,XXXX,-128.138745,51.649503,1122.240 m,2.49000,-0.80000,36.60000,T,640,4.5,1000
204_RGB_110734.IIQ,204,16:22:10.483888,2120:58930.483888,XXXX,XXXX,-128.136691,51.651238,1120.850 m,2.33000,-0.57000,36.02000,T,640,4.5,1000
205_RGB_110735.IIQ,205,16:22:13.994742,2120:58933.994742,XXXX,XXXX,-128.134646,51.652998,1118.940 m,2.23000,0.00000,35.70000,T,640,4.5,1000
206_RGB_110736.IIQ,206,16:22:17.481598,2120:58937.481598,XXXX,XXXX,-128.132605,51.654754,1117.210 m,2.32000,0.29000,35.90000,T,640,4.5,1000
207_RGB_110737.IIQ,207,16:22:20.932453,2120:58940.932453,XXXX,XXXX,-128.130561,51.65649,1116.200 m,2.40000,1.28000,36.69000,T,640,4.5,1000
208_RGB_110738.IIQ,208,16:22:24.400308,2120:58944.400308,XXXX,XXXX,-128.128475,51.658225,1115.700 m,2.59000,-0.53000,36.60000,T,640,4.5,1000
209_RGB_110739.IIQ,209,16:22:27.862164,2120:58947.862164,XXXX,XXXX,-128.126417,51.659968,1116.060 m,2.92000,-0.68000,35.73000,T,640,4.5,1000
210_RGB_110740.IIQ,210,16:22:31.331019,2120:58951.331019,XXXX,XXXX,-128.124393,51.661726,1117.580 m,3.15000,-0.23000,35.21000,T,640,4.5,1000
211_RGB_110741.IIQ,211,16:22:34.823371,2120:58954.823371,XXXX,XXXX,-128.122368,51.663491,1119.570 m,2.95000,0.37000,35.82000,T,640,4.5,1000
212_RGB_110742.IIQ,212,16:22:38.310727,2120:58958.310727,XXXX,XXXX,-128.120328,51.665242,1120.400 m,2.56000,1.55000,36.19000,T,640,4.5,1000
213_RGB_110743.IIQ,213,16:22:41.798055,2120:58961.798055,XXXX,XXXX,-128.11826,51.666981,1119.700 m,2.45000,-0.99000,36.43000,T,640,4.5,1000
214_RGB_110744.IIQ,214,16:22:45.269437,2120:58965.269437,XXXX,XXXX,-128.116199,51.668718,1118.890 m,2.47000,0.97000,36.52000,T,640,4.5,1000
215_RGB_110745.IIQ,215,16:22:48.767736,2120:58968.767736,XXXX,XXXX,-128.114095,51.67046,1118.630 m,2.53000,1.25000,37.43000,T,640,4.5,1000
216_RGB_110746.IIQ,216,16:22:52.216156,2120:58972.216156,XXXX,XXXX,-128.111986,51.672164,1118.600 m,2.67000,1.08000,37.72000,T,640,4.5,1000
217_RGB_110747.IIQ,217,16:22:55.695011,2120:58975.695011,XXXX,XXXX,-128.109854,51.673881,1119.120 m,2.95000,-0.42000,37.07000,T,640,4.5,1000
218_RGB_110748.IIQ,218,16:22:59.167867,2120:58979.167867,XXXX,XXXX,-128.107753,51.675603,1120.600 m,3.10000,1.28000,37.46000,T,640,4.5,1000
219_RGB_110749.IIQ,219,16:23:02.667724,2120:58982.667724,XXXX,XXXX,-128.105637,51.67733,1122.630 m,3.14000,-3.40000,36.24000,T,640,4.5,1000
220_RGB_110750.IIQ,220,16:23:06.147585,2120:58986.147585,XXXX,XXXX,-128.10361,51.679075,1123.539 m,2.70000,-0.97000,35.06000,T,640,4.5,1000
221_RGB_110751.IIQ,221,16:23:09.646794,2120:58989.646794,XXXX,XXXX,-128.101595,51.680842,1122.920 m,2.46000,-0.49000,35.34000,T,640,4.5,1000
222_RGB_110752.IIQ,222,16:23:13.137296,2120:58993.137296,XXXX,XXXX,-128.099585,51.682611,1121.410 m,2.35000,0.81000,35.31000,T,640,4.5,1000
223_RGB_110753.IIQ,223,16:23:16.604154,2120:58996.604154,XXXX,XXXX,-128.097566,51.684366,1119.960 m,2.43000,-0.18000,35.82000,T,640,4.5,1000
224_RGB_110754.IIQ,224,16:23:20.083318,2120:59000.083318,XXXX,XXXX,-128.095528,51.686127,1119.450 m,2.65000,1.18000,35.92000,T,640,4.5,1000
225_RGB_110755.IIQ,225,16:23:23.543157,2120:59003.543157,XXXX,XXXX,-128.093478,51.687869,1119.940 m,2.89000,1.86000,36.72000,T,640,4.5,1000
226_RGB_110756.IIQ,226,16:23:27.022003,2120:59007.022003,XXXX,XXXX,-128.091373,51.689596,1121.480 m,3.14000,0.07000,37.51000,T,640,4.5,1000
227_RGB_110757.IIQ,227,16:23:30.502845,2120:59010.502845,XXXX,XXXX,-128.089264,51.691314,1123.769 m,3.36000,-1.16000,36.81000,T,640,4.5,1000
228_RGB_110758.IIQ,228,16:23:33.991435,2120:59013.991435,XXXX,XXXX,-128.087191,51.693044,1126.450 m,3.38000,-0.57000,36.39000,T,640,4.5,1000
229_RGB_110759.IIQ,229,16:23:37.512523,2120:59017.512523,XXXX,XXXX,-128.085113,51.694786,1128.950 m,3.27000,-0.92000,36.44000,T,640,4.5,1000
230_RGB_110760.IIQ,230,16:23:41.035367,2120:59021.035367,XXXX,XXXX,-128.083059,51.696533,1130.759 m,3.11000,-1.70000,35.57000,T,640,4.5,1000
231_RGB_110761.IIQ,231,16:23:44.556,2120:59024.556,XXXX,XXXX,-128.081055,51.698299,1131.420 m,2.86000,0.20000,34.71000,T,640,4.5,1000
232_RGB_110762.IIQ,232,16:23:48.081853,2120:59028.081853,XXXX,XXXX,-128.079053,51.700073,1131.389 m,2.73000,2.54000,34.97000,T,640,4.5,1000
233_RGB_110763.IIQ,233,16:23:51.600707,2120:59031.600707,XXXX,XXXX,-128.076997,51.701824,1131.009 m,2.56000,1.47000,37.00000,T,640,4.5,1000
234_RGB_110764.IIQ,234,16:26:08.967666,2120:59168.967666,XXXX,XXXX,-128.071653,51.69639,1125.899 m,3.11000,0.47000,218.70000,T,640,4.5,1000
235_RGB_110765.IIQ,235,16:26:12.446886,2120:59172.446886,XXXX,XXXX,-128.073755,51.694679,1126.250 m,3.19000,-0.46000,219.16000,T,640,4.5,1000
236_RGB_110766.IIQ,236,16:26:15.957738,2120:59175.957738,XXXX,XXXX,-128.075859,51.692944,1126.769 m,3.25000,-0.86000,218.06000,T,640,4.5,1000
237_RGB_110767.IIQ,237,16:26:19.445594,2120:59179.445594,XXXX,XXXX,-128.07793,51.691213,1127.740 m,3.32000,0.87000,218.10001,T,640,4.5,1000
238_RGB_110768.IIQ,238,16:26:22.945452,2120:59182.945452,XXXX,XXXX,-128.080024,51.689486,1129.069 m,3.28000,-0.95000,218.69000,T,640,4.5,1000
239_RGB_110769.IIQ,239,16:26:26.445307,2120:59186.445307,XXXX,XXXX,-128.082108,51.687753,1129.470 m,2.72000,-1.38000,217.57001,T,640,4.5,1000
240_RGB_110770.IIQ,240,16:26:29.926162,2120:59189.926162,XXXX,XXXX,-128.084153,51.686006,1127.369 m,2.03000,0.54000,217.24001,T,640,4.5,1000
241_RGB_110771.IIQ,241,16:26:33.392021,2120:59193.392021,XXXX,XXXX,-128.086212,51.684254,1123.119 m,1.82000,-0.72000,217.39000,T,640,4.5,1000
242_RGB_110772.IIQ,242,16:26:36.819875,2120:59196.819875,XXXX,XXXX,-128.088258,51.682502,1118.539 m,1.90000,-0.88000,216.85001,T,640,4.5,1000
243_RGB_110773.IIQ,243,16:26:40.219262,2120:59200.219262,XXXX,XXXX,-128.090285,51.680743,1115.160 m,2.20000,-0.76000,216.49001,T,640,4.5,1000
244_RGB_110774.IIQ,244,16:26:43.597112,2120:59203.597112,XXXX,XXXX,-128.092298,51.678983,1113.400 m,2.47000,2.20000,217.07001,T,640,4.5,1000
245_RGB_110775.IIQ,245,16:26:46.986453,2120:59206.986453,XXXX,XXXX,-128.094358,51.677232,1112.819 m,2.81000,-0.09000,217.37000,T,640,4.5,1000
246_RGB_110776.IIQ,246,16:26:50.354312,2120:59210.354312,XXXX,XXXX,-128.096409,51.675496,1113.339 m,3.13000,-0.42000,217.24001,T,640,4.5,1000
247_RGB_110777.IIQ,247,16:26:53.755168,2120:59213.755168,XXXX,XXXX,-128.098466,51.673746,1115.200 m,3.35000,-0.90000,217.19000,T,640,4.5,1000
248_RGB_110778.IIQ,248,16:26:57.165499,2120:59217.165499,XXXX,XXXX,-128.100506,51.671993,1117.420 m,3.29000,0.38000,216.91000,T,640,4.5,1000
249_RGB_110779.IIQ,249,16:27:00.606883,2120:59220.606883,XXXX,XXXX,-128.102568,51.670235,1118.680 m,2.95000,2.63000,217.82001,T,640,4.5,1000
250_RGB_110780.IIQ,250,16:27:04.005743,2120:59224.005743,XXXX,XXXX,-128.104656,51.668526,1118.539 m,2.56000,2.10000,219.07001,T,640,4.5,1000
251_RGB_110781.IIQ,251,16:27:07.453603,2120:59227.453603,XXXX,XXXX,-128.106821,51.66681,1117.059 m,2.29000,-2.00000,219.19000,T,640,4.5,1000
252_RGB_110782.IIQ,252,16:27:10.83346,2120:59230.83346,XXXX,XXXX,-128.108915,51.665102,1114.450 m,2.16000,-1.35000,217.34000,T,640,4.5,1000
253_RGB_110783.IIQ,253,16:27:14.231726,2120:59234.231726,XXXX,XXXX,-128.110967,51.663348,1112.240 m,2.29000,-1.75000,216.78999,T,640,4.5,1000
254_RGB_110784.IIQ,254,16:27:17.611182,2120:59237.611182,XXXX,XXXX,-128.11297,51.661577,1111.029 m,2.50000,-0.90000,215.75999,T,640,4.5,1000
255_RGB_110785.IIQ,255,16:27:20.991042,2120:59240.991042,XXXX,XXXX,-128.114955,51.659794,1110.610 m,2.59000,2.28000,216.31000,T,640,4.5,1000
256_RGB_110786.IIQ,256,16:27:24.358899,2120:59244.358899,XXXX,XXXX,-128.116983,51.65804,1110.660 m,2.73000,1.66000,217.64999,T,640,4.5,1000
257_RGB_110787.IIQ,257,16:27:27.74776,2120:59247.74776,XXXX,XXXX,-128.119063,51.656295,1111.350 m,2.91000,-0.95000,217.81000,T,640,4.5,1000
258_RGB_110788.IIQ,258,16:27:31.117623,2120:59251.117623,XXXX,XXXX,-128.121114,51.654556,1112.470 m,3.03000,-1.21000,216.80000,T,640,4.5,1000
259_RGB_110789.IIQ,259,16:27:34.490805,2120:59254.490805,XXXX,XXXX,-128.123121,51.652801,1113.740 m,3.00000,2.11000,216.56000,T,640,4.5,1000
260_RGB_110790.IIQ,260,16:27:37.89865,2120:59257.89865,XXXX,XXXX,-128.125186,51.65105,1114.810 m,2.90000,2.63000,218.42999,T,640,4.5,1000
261_RGB_110791.IIQ,261,16:27:41.298495,2120:59261.298495,XXXX,XXXX,-128.127302,51.649334,1115.500 m,2.93000,-0.88000,218.80000,T,640,4.5,1000
262_RGB_110792.IIQ,262,16:27:44.697339,2120:59264.697339,XXXX,XXXX,-128.129407,51.647616,1116.070 m,2.88000,-0.77000,217.98000,T,640,4.5,1000
263_RGB_110793.IIQ,263,16:27:48.098186,2120:59268.098186,XXXX,XXXX,-128.131488,51.645886,1116.450 m,2.88000,0.03000,217.83000,T,640,4.5,1000
264_RGB_110794.IIQ,264,16:27:51.509035,2120:59271.509035,XXXX,XXXX,-128.133578,51.644153,1116.920 m,2.89000,0.89000,218.30000,T,640,4.5,1000
265_RGB_110795.IIQ,265,16:27:54.915882,2120:59274.915882,XXXX,XXXX,-128.135679,51.642433,1117.360 m,2.89000,-0.42000,218.20000,T,640,4.5,1000
266_RGB_110796.IIQ,266,16:27:58.327728,2120:59278.327728,XXXX,XXXX,-128.13776,51.640698,1117.750 m,2.82000,-0.30000,217.34000,T,640,4.5,1000
267_RGB_110797.IIQ,267,16:28:01.736344,2120:59281.736344,XXXX,XXXX,-128.139808,51.63895,1118.109 m,2.75000,0.07000,217.05000,T,640,4.5,1000
268_RGB_110798.IIQ,268,16:28:05.156206,2120:59285.156206,XXXX,XXXX,-128.141866,51.637198,1118.529 m,2.78000,1.22000,217.52000,T,640,4.5,1000
269_RGB_110799.IIQ,269,16:28:08.555267,2120:59288.555267,XXXX,XXXX,-128.143944,51.63547,1119.209 m,2.81000,2.12000,218.37000,T,640,4.5,1000
270_RGB_110800.IIQ,270,16:28:11.963119,2120:59291.963119,XXXX,XXXX,-128.146071,51.633761,1120.279 m,3.00000,-0.40000,219.22000,T,640,4.5,1000
271_RGB_110801.IIQ,271,16:28:15.373963,2120:59295.373963,XXXX,XXXX,-128.1482,51.632054,1122.049 m,3.16000,-0.45000,218.47000,T,640,4.5,1000
272_RGB_110802.IIQ,272,16:28:18.814808,2120:59298.814808,XXXX,XXXX,-128.150313,51.630323,1124.429 m,3.09000,-0.42000,218.00000,T,640,4.5,1000
273_RGB_110803.IIQ,273,16:28:22.242654,2120:59302.242654,XXXX,XXXX,-128.152377,51.628585,1126.129 m,2.68000,-1.39000,216.81000,T,640,4.5,1000
274_RGB_110804.IIQ,274,16:30:29.161257,2120:59429.161257,XXXX,XXXX,-128.140475,51.628779,1126.619 m,2.85000,3.64000,38.50000,T,640,4.5,1000
275_RGB_110805.IIQ,275,16:30:32.669112,2120:59432.669112,XXXX,XXXX,-128.138292,51.630462,1127.719 m,3.17000,-0.91000,39.75000,T,640,4.5,1000
276_RGB_110806.IIQ,276,16:30:36.201963,2120:59436.201963,XXXX,XXXX,-128.136107,51.632156,1129.759 m,3.49000,-3.77000,37.80000,T,640,4.5,1000
277_RGB_110807.IIQ,277,16:30:39.720435,2120:59439.720435,XXXX,XXXX,-128.134036,51.633881,1132.679 m,3.57000,-2.79000,35.69000,T,640,4.5,1000
278_RGB_110808.IIQ,278,16:30:43.27467,2120:59443.27467,XXXX,XXXX,-128.132023,51.635646,1135.509 m,3.29000,-0.85000,35.16000,T,640,4.5,1000
279_RGB_110809.IIQ,279,16:30:46.840522,2120:59446.840522,XXXX,XXXX,-128.130034,51.637425,1137.019 m,2.69000,0.50000,34.76000,T,640,4.5,1000
280_RGB_110810.IIQ,280,16:30:50.392951,2120:59450.392951,XXXX,XXXX,-128.128041,51.639199,1135.330 m,1.54000,2.70000,35.93000,T,640,4.5,1000
281_RGB_110811.IIQ,281,16:30:53.902792,2120:59453.902792,XXXX,XXXX,-128.125988,51.640943,1129.300 m,0.80000,0.94000,37.22000,T,640,4.5,1000
282_RGB_110812.IIQ,282,16:30:57.383633,2120:59457.383633,XXXX,XXXX,-128.123894,51.642685,1121.340 m,0.75000,-1.27000,36.79000,T,640,4.5,1000
283_RGB_110813.IIQ,283,16:31:00.790945,2120:59460.790945,XXXX,XXXX,-128.121871,51.64444,1114.040 m,0.96000,-1.33000,34.88000,T,640,4.5,1000
284_RGB_110814.IIQ,284,16:31:04.175806,2120:59464.175806,XXXX,XXXX,-128.119881,51.646222,1107.540 m,0.71000,3.48000,35.78000,T,640,4.5,1000
285_RGB_110815.IIQ,285,16:31:07.511669,2120:59467.511669,XXXX,XXXX,-128.117834,51.647966,1101.750 m,1.16000,2.27000,37.26000,T,640,4.5,1000
286_RGB_110816.IIQ,286,16:31:10.840529,2120:59470.840529,XXXX,XXXX,-128.115736,51.649698,1098.570 m,2.02000,-1.60000,37.26000,T,640,4.5,1000
287_RGB_110817.IIQ,287,16:31:14.158872,2120:59474.158872,XXXX,XXXX,-128.113678,51.651438,1098.920 m,2.68000,-0.92000,36.31000,T,640,4.5,1000
288_RGB_110818.IIQ,288,16:31:17.503722,2120:59477.503722,XXXX,XXXX,-128.111633,51.653191,1101.570 m,2.99000,-0.42000,36.63000,T,640,4.5,1000
289_RGB_110819.IIQ,289,16:31:20.86257,2120:59480.86257,XXXX,XXXX,-128.109584,51.654934,1105.250 m,3.36000,0.53000,36.92000,T,640,4.5,1000
290_RGB_110820.IIQ,290,16:31:24.26497,2120:59484.26497,XXXX,XXXX,-128.107522,51.65668,1110.570 m,3.82000,-0.66000,36.59000,T,640,4.5,1000
291_RGB_110821.IIQ,291,16:31:27.696258,2120:59487.696258,XXXX,XXXX,-128.105473,51.658423,1116.840 m,3.85000,0.76000,36.96000,T,640,4.5,1000
292_RGB_110822.IIQ,292,16:31:31.149102,2120:59491.149102,XXXX,XXXX,-128.103412,51.660148,1122.210 m,3.61000,0.41000,37.16000,T,640,4.5,1000
293_RGB_110823.IIQ,293,16:31:34.671537,2120:59494.671537,XXXX,XXXX,-128.101313,51.661889,1125.980 m,3.10000,0.51000,37.25000,T,640,4.5,1000
294_RGB_110824.IIQ,294,16:31:38.17039,2120:59498.17039,XXXX,XXXX,-128.099218,51.663608,1126.950 m,2.46000,1.65000,37.72000,T,640,4.5,1000
295_RGB_110825.IIQ,295,16:31:41.678246,2120:59501.678246,XXXX,XXXX,-128.097076,51.665319,1125.750 m,1.97000,2.25000,38.70000,T,640,4.5,1000
296_RGB_110826.IIQ,296,16:31:45.155464,2120:59505.155464,XXXX,XXXX,-128.094898,51.667003,1123.200 m,2.01000,-2.95000,38.85000,T,640,4.5,1000
297_RGB_110827.IIQ,297,16:31:48.612961,2120:59508.612961,XXXX,XXXX,-128.092767,51.66871,1121.400 m,2.34000,-0.24000,37.40000,T,640,4.5,1000
298_RGB_110828.IIQ,298,16:31:52.083817,2120:59512.083817,XXXX,XXXX,-128.090663,51.670445,1121.259 m,2.65000,-0.75000,37.33000,T,640,4.5,1000
299_RGB_110829.IIQ,299,16:31:55.543674,2120:59515.543674,XXXX,XXXX,-128.088586,51.672183,1121.740 m,2.82000,-3.85000,36.15000,T,640,4.5,1000
300_RGB_110830.IIQ,300,16:31:58.986531,2120:59518.986531,XXXX,XXXX,-128.086599,51.673943,1122.579 m,2.92000,-0.96000,34.81000,T,640,4.5,1000
301_RGB_110831.IIQ,301,16:32:02.47568,2120:59522.47568,XXXX,XXXX,-128.084622,51.675735,1124.200 m,3.14000,0.42000,34.55000,T,640,4.5,1000
302_RGB_110832.IIQ,302,16:32:05.955521,2120:59525.955521,XXXX,XXXX,-128.082648,51.677512,1126.640 m,3.26000,1.40000,35.11000,T,640,4.5,1000
303_RGB_110833.IIQ,303,16:32:09.466096,2120:59529.466096,XXXX,XXXX,-128.080622,51.679277,1129.380 m,3.30000,0.31000,35.92000,T,640,4.5,1000
304_RGB_110834.IIQ,304,16:32:12.97795,2120:59532.97795,XXXX,XXXX,-128.078585,51.681028,1131.740 m,3.22000,1.43000,35.46000,T,640,4.5,1000
305_RGB_110835.IIQ,305,16:32:16.513801,2120:59536.513801,XXXX,XXXX,-128.076521,51.682776,1132.890 m,2.93000,0.25000,36.25000,T,640,4.5,1000
306_RGB_110836.IIQ,306,16:32:20.032886,2120:59540.032886,XXXX,XXXX,-128.074451,51.684508,1132.700 m,2.53000,-0.76000,36.52000,T,640,4.5,1000
307_RGB_110837.IIQ,307,16:32:23.54351,2120:59543.54351,XXXX,XXXX,-128.072391,51.686246,1130.559 m,2.11000,-0.10000,35.81000,T,640,4.5,1000
308_RGB_110838.IIQ,308,16:32:27.041363,2120:59547.041363,XXXX,XXXX,-128.070335,51.687991,1127.129 m,1.93000,0.41000,35.95000,T,640,4.5,1000
309_RGB_110839.IIQ,309,16:32:30.527218,2120:59550.527218,XXXX,XXXX,-128.06826,51.689737,1123.710 m,1.95000,0.06000,36.33000,T,640,4.5,1000
310_RGB_110840.IIQ,310,16:34:43.873709,2120:59683.873709,XXXX,XXXX,-128.069185,51.679106,1119.539 m,4.03000,1.87000,216.52000,T,640,4.5,1000
311_RGB_110841.IIQ,311,16:34:47.295232,2120:59687.295232,XXXX,XXXX,-128.071201,51.677335,1124.200 m,3.24000,4.12000,217.62000,T,640,4.5,1000
312_RGB_110842.IIQ,312,16:34:50.715426,2120:59690.715426,XXXX,XXXX,-128.073286,51.675607,1125.750 m,2.34000,1.89000,219.14999,T,640,4.5,1000
313_RGB_110843.IIQ,313,16:34:54.132283,2120:59694.132283,XXXX,XXXX,-128.075429,51.673902,1123.660 m,1.84000,-0.62000,219.64999,T,640,4.5,1000
314_RGB_110844.IIQ,314,16:34:57.510144,2120:59697.510144,XXXX,XXXX,-128.077553,51.672197,1120.190 m,1.77000,-0.30000,218.36000,T,640,4.5,1000
315_RGB_110845.IIQ,315,16:35:00.897002,2120:59700.897002,XXXX,XXXX,-128.079651,51.670452,1117.039 m,2.00000,-1.42000,217.24001,T,640,4.5,1000
316_RGB_110846.IIQ,316,16:35:04.237865,2120:59704.237865,XXXX,XXXX,-128.081683,51.6687,1115.720 m,2.48000,0.83000,216.32001,T,640,4.5,1000
317_RGB_110847.IIQ,317,16:35:07.587316,2120:59707.587316,XXXX,XXXX,-128.083727,51.666945,1116.620 m,2.71000,1.89000,217.19000,T,640,4.5,1000
318_RGB_110848.IIQ,318,16:35:10.926164,2120:59710.926164,XXXX,XXXX,-128.085802,51.665218,1118.559 m,2.91000,0.44000,218.05000,T,640,4.5,1000
319_RGB_110849.IIQ,319,16:35:14.287446,2120:59714.287446,XXXX,XXXX,-128.087887,51.663484,1120.370 m,2.82000,-1.56000,217.03000,T,640,4.5,1000
320_RGB_110850.IIQ,320,16:35:17.657306,2120:59717.657306,XXXX,XXXX,-128.089933,51.661731,1121.660 m,2.51000,-0.11000,216.83000,T,640,4.5,1000
321_RGB_110851.IIQ,321,16:35:21.017164,2120:59721.017164,XXXX,XXXX,-128.091971,51.65998,1121.410 m,2.12000,-0.34000,217.05000,T,640,4.5,1000
322_RGB_110852.IIQ,322,16:35:24.374025,2120:59724.374025,XXXX,XXXX,-128.094016,51.658227,1119.890 m,1.85000,0.26000,217.05000,T,640,4.5,1000
323_RGB_110853.IIQ,323,16:35:27.712886,2120:59727.712886,XXXX,XXXX,-128.096068,51.656479,1117.650 m,1.73000,-0.13000,216.92999,T,640,4.5,1000
324_RGB_110854.IIQ,324,16:35:31.020754,2120:59731.020754,XXXX,XXXX,-128.098111,51.654737,1115.570 m,1.76000,-0.85000,216.63000,T,640,4.5,1000
325_RGB_110855.IIQ,325,16:35:34.329103,2120:59734.329103,XXXX,XXXX,-128.100146,51.65298,1113.860 m,1.93000,-0.35000,216.33000,T,640,4.5,1000
326_RGB_110856.IIQ,326,16:35:37.629479,2120:59737.629479,XXXX,XXXX,-128.10217,51.651218,1113.320 m,2.25000,-1.88000,215.89000,T,640,4.5,1000
327_RGB_110857.IIQ,327,16:35:40.92834,2120:59740.92834,XXXX,XXXX,-128.104163,51.649443,1113.960 m,2.52000,-0.33000,215.77000,T,640,4.5,1000
328_RGB_110858.IIQ,328,16:35:44.229203,2120:59744.229203,XXXX,XXXX,-128.106157,51.647672,1115.400 m,2.63000,0.88000,216.03000,T,640,4.5,1000
329_RGB_110859.IIQ,329,16:35:47.5485,2120:59747.5485,XXXX,XXXX,-128.108186,51.64591,1116.860 m,2.44000,3.18000,217.16000,T,640,4.5,1000
330_RGB_110860.IIQ,330,16:35:50.867346,2120:59750.867346,XXXX,XXXX,-128.110273,51.644177,1117.370 m,2.32000,0.39000,217.92000,T,640,4.5,1000
331_RGB_110861.IIQ,331,16:35:54.1672,2120:59754.1672,XXXX,XXXX,-128.112369,51.642466,1117.480 m,2.30000,1.05000,218.33000,T,640,4.5,1000
332_RGB_110862.IIQ,332,16:35:57.505051,2120:59757.505051,XXXX,XXXX,-128.114514,51.640746,1117.400 m,2.37000,-0.63000,218.86000,T,640,4.5,1000
333_RGB_110863.IIQ,333,16:36:00.803903,2120:59760.803903,XXXX,XXXX,-128.116631,51.639045,1117.330 m,2.43000,-0.53000,218.44000,T,640,4.5,1000
334_RGB_110864.IIQ,334,16:36:04.135376,2120:59764.135376,XXXX,XXXX,-128.118746,51.637318,1117.250 m,2.44000,0.25000,218.20000,T,640,4.5,1000
335_RGB_110865.IIQ,335,16:36:07.453238,2120:59767.453238,XXXX,XXXX,-128.120859,51.635601,1117.259 m,2.42000,0.68000,218.57001,T,640,4.5,1000
336_RGB_110866.IIQ,336,16:36:10.784457,2120:59770.784457,XXXX,XXXX,-128.122997,51.633887,1117.339 m,2.42000,-0.62000,218.67999,T,640,4.5,1000
337_RGB_110867.IIQ,337,16:36:14.082309,2120:59774.082309,XXXX,XXXX,-128.125104,51.632185,1117.349 m,2.37000,-1.42000,217.98000,T,640,4.5,1000
338_RGB_110868.IIQ,338,16:38:38.53501,2120:59918.53501,XXXX,XXXX,-128.109064,51.635861,1130.510 m,2.78000,-0.38000,34.82000,T,640,4.5,1000
339_RGB_110869.IIQ,339,16:38:42.066866,2120:59922.066866,XXXX,XXXX,-128.107073,51.637623,1129.260 m,2.04000,4.08000,36.53000,T,640,4.5,1000
340_RGB_110870.IIQ,340,16:38:45.604721,2120:59925.604721,XXXX,XXXX,-128.104977,51.639361,1125.820 m,1.72000,1.33000,38.14000,T,640,4.5,1000
341_RGB_110871.IIQ,341,16:38:49.090579,2120:59929.090579,XXXX,XXXX,-128.102854,51.64107,1121.790 m,1.61000,-0.78000,38.36000,T,640,4.5,1000
342_RGB_110872.IIQ,342,16:38:52.567437,2120:59932.567437,XXXX,XXXX,-128.100729,51.642794,1117.720 m,1.52000,-0.24000,37.59000,T,640,4.5,1000
343_RGB_110873.IIQ,343,16:38:55.997294,2120:59935.997294,XXXX,XXXX,-128.098649,51.644525,1114.160 m,1.70000,-0.83000,37.07000,T,640,4.5,1000
344_RGB_110874.IIQ,344,16:38:59.407152,2120:59939.407152,XXXX,XXXX,-128.096589,51.646265,1111.740 m,2.04000,0.09000,36.97000,T,640,4.5,1000
345_RGB_110875.IIQ,345,16:39:02.825016,2120:59942.825016,XXXX,XXXX,-128.094516,51.648011,1110.960 m,2.53000,-0.32000,37.08000,T,640,4.5,1000
346_RGB_110876.IIQ,346,16:39:06.225874,2120:59946.225874,XXXX,XXXX,-128.092459,51.649748,1112.360 m,2.98000,-0.90000,36.79000,T,640,4.5,1000
347_RGB_110877.IIQ,347,16:39:09.655731,2120:59949.655731,XXXX,XXXX,-128.090411,51.651498,1115.140 m,3.31000,-0.41000,36.27000,T,640,4.5,1000
348_RGB_110878.IIQ,348,16:39:13.109215,2120:59953.109215,XXXX,XXXX,-128.088392,51.653261,1118.830 m,3.38000,1.04000,35.80000,T,640,4.5,1000
349_RGB_110879.IIQ,349,16:39:16.578445,2120:59956.578445,XXXX,XXXX,-128.086365,51.655016,1122.740 m,3.35000,1.07000,36.52000,T,640,4.5,1000
350_RGB_110880.IIQ,350,16:39:20.0593,2120:59960.0593,XXXX,XXXX,-128.084319,51.656756,1125.809 m,3.19000,-0.63000,36.47000,T,640,4.5,1000
351_RGB_110881.IIQ,351,16:39:23.579156,2120:59963.579156,XXXX,XXXX,-128.082273,51.658515,1127.640 m,2.91000,1.62000,36.14000,T,640,4.5,1000
352_RGB_110882.IIQ,352,16:39:27.079583,2120:59967.079583,XXXX,XXXX,-128.080208,51.660249,1128.430 m,2.81000,0.90000,37.25000,T,640,4.5,1000
353_RGB_110883.IIQ,353,16:39:30.597864,2120:59970.597864,XXXX,XXXX,-128.078108,51.661979,1128.799 m,2.65000,-0.03000,37.15000,T,640,4.5,1000
354_RGB_110884.IIQ,354,16:39:34.097717,2120:59974.097717,XXXX,XXXX,-128.076043,51.663715,1128.329 m,2.37000,-0.73000,36.26000,T,640,4.5,1000
355_RGB_110885.IIQ,355,16:39:37.595574,2120:59977.595574,XXXX,XXXX,-128.073989,51.665462,1126.930 m,2.18000,-0.92000,36.15000,T,640,4.5,1000
356_RGB_110886.IIQ,356,16:39:41.085428,2120:59981.085428,XXXX,XXXX,-128.07195,51.667221,1125.269 m,2.35000,0.02000,35.69000,T,640,4.5,1000
357_RGB_110887.IIQ,357,16:39:44.55228,2120:59984.55228,XXXX,XXXX,-128.069916,51.66897,1124.710 m,2.60000,1.99000,36.12000,T,640,4.5,1000
358_RGB_110888.IIQ,358,16:42:20.913842,2120:60140.913842,XXXX,XXXX,-128.077081,51.653171,1116.580 m,2.35000,2.07000,219.89000,T,640,4.5,1000
359_RGB_110889.IIQ,359,16:42:24.331703,2120:60144.331703,XXXX,XXXX,-128.079269,51.65148,1114.370 m,1.80000,0.82000,220.14999,T,640,4.5,1000
360_RGB_110890.IIQ,360,16:42:27.709563,2120:60147.709563,XXXX,XXXX,-128.081439,51.649793,1111.029 m,2.10000,-6.37000,217.89999,T,640,4.5,1000
361_RGB_110891.IIQ,361,16:42:31.070422,2120:60151.070422,XXXX,XXXX,-128.083469,51.648038,1108.670 m,2.02000,-0.53000,214.85001,T,640,4.5,1000
362_RGB_110892.IIQ,362,16:42:34.448282,2120:60154.448282,XXXX,XXXX,-128.085448,51.646236,1106.450 m,2.07000,-0.84000,214.87000,T,640,4.5,1000
363_RGB_110893.IIQ,363,16:42:37.767148,2120:60157.767148,XXXX,XXXX,-128.087392,51.644455,1104.690 m,2.19000,0.87000,215.32001,T,640,4.5,1000
364_RGB_110894.IIQ,364,16:42:41.096011,2120:60161.096011,XXXX,XXXX,-128.089374,51.642678,1103.750 m,2.23000,2.47000,216.24001,T,640,4.5,1000
365_RGB_110895.IIQ,365,16:42:44.434873,2120:60164.434873,XXXX,XXXX,-128.091423,51.640919,1103.080 m,2.08000,1.88000,217.42000,T,640,4.5,1000
366_RGB_110896.IIQ,366,16:42:47.733735,2120:60167.733735,XXXX,XXXX,-128.093491,51.639196,1101.700 m,1.97000,-0.69000,217.50000,T,640,4.5,1000
367_RGB_110897.IIQ,367,16:42:51.062597,2120:60171.062597,XXXX,XXXX,-128.095562,51.637441,1099.580 m,1.90000,-3.63000,216.27000,T,640,4.5,1000
368_RGB_110898.IIQ,368,16:42:54.353461,2120:60174.353461,XXXX,XXXX,-128.097529,51.635661,1097.060 m,1.84000,-3.10000,213.80000,T,640,4.5,1000
369_RGB_110899.IIQ,369,16:45:17.034774,2120:60317.034774,XXXX,XXXX,-128.090018,51.632503,1125.260 m,0.38000,-0.39000,37.02000,T,640,4.5,1000
370_RGB_110900.IIQ,370,16:45:20.520612,2120:60320.520612,XXXX,XXXX,-128.087932,51.634236,1115.050 m,0.02000,-0.17000,37.17000,T,640,4.5,1000
371_RGB_110901.IIQ,371,16:45:23.95546,2120:60323.95546,XXXX,XXXX,-128.085841,51.635979,1106.390 m,1.01000,-1.89000,37.16000,T,640,4.5,1000
372_RGB_110902.IIQ,372,16:45:27.326143,2120:60327.326143,XXXX,XXXX,-128.083804,51.637726,1102.160 m,1.81000,-0.79000,35.83000,T,640,4.5,1000
373_RGB_110903.IIQ,373,16:45:30.705155,2120:60330.705155,XXXX,XXXX,-128.08179,51.639496,1101.130 m,2.49000,0.40000,35.80000,T,640,4.5,1000
374_RGB_110904.IIQ,374,16:45:34.075002,2120:60334.075002,XXXX,XXXX,-128.079773,51.641251,1102.670 m,2.92000,2.04000,36.51000,T,640,4.5,1000
375_RGB_110905.IIQ,375,16:45:37.465848,2120:60337.465848,XXXX,XXXX,-128.077712,51.642984,1105.190 m,3.09000,1.01000,37.31000,T,640,4.5,1000
376_RGB_110906.IIQ,376,16:45:40.904694,2120:60340.904694,XXXX,XXXX,-128.075616,51.644721,1108.200 m,3.45000,-1.79000,36.86000,T,640,4.5,1000
377_RGB_110907.IIQ,377,16:45:44.34954,2120:60344.34954,XXXX,XXXX,-128.07357,51.646462,1112.440 m,3.66000,-0.91000,36.15000,T,640,4.5,1000
378_RGB_110908.IIQ,378,16:45:47.831381,2120:60347.831381,XXXX,XXXX,-128.071535,51.64821,1117.100 m,3.62000,0.75000,36.47000,T,640,4.5,1000
379_RGB_110909.IIQ,379,16:45:51.367226,2120:60351.367226,XXXX,XXXX,-128.06947,51.649964,1120.880 m,3.37000,-0.06000,36.10000,T,640,4.5,1000
380_RGB_110910.IIQ,380,16:50:40.741198,2120:60640.741198,XXXX,XXXX,-128.180384,51.801928,1125.339 m,2.25000,-0.65000,350.60001,T,640,4.5,1000
381_RGB_110911.IIQ,381,16:50:44.126057,2120:60644.126057,XXXX,XXXX,-128.181048,51.804048,1124.470 m,2.25000,-0.48000,350.23001,T,640,4.5,1000
382_RGB_110912.IIQ,382,16:50:47.524918,2120:60647.524918,XXXX,XXXX,-128.181731,51.806177,1123.889 m,2.19000,0.38000,350.38000,T,640,4.5,1000
383_RGB_110913.IIQ,383,16:50:50.908776,2120:60650.908776,XXXX,XXXX,-128.182393,51.808303,1123.269 m,2.08000,2.81000,351.03000,T,640,4.5,1000
384_RGB_110914.IIQ,384,16:50:54.278634,2120:60654.278634,XXXX,XXXX,-128.18299,51.810429,1122.419 m,2.21000,0.14000,351.98001,T,640,4.5,1000
385_RGB_110915.IIQ,385,16:50:57.664492,2120:60657.664492,XXXX,XXXX,-128.183565,51.812569,1121.700 m,2.44000,0.04000,352.17999,T,640,4.5,1000
386_RGB_110916.IIQ,386,16:51:01.023351,2120:60661.023351,XXXX,XXXX,-128.184128,51.814691,1121.579 m,2.61000,-0.11000,351.98999,T,640,4.5,1000
387_RGB_110917.IIQ,387,16:51:04.420211,2120:60664.420211,XXXX,XXXX,-128.184696,51.816833,1122.159 m,2.61000,-0.14000,351.91000,T,640,4.5,1000
388_RGB_110918.IIQ,388,16:51:07.80907,2120:60667.80907,XXXX,XXXX,-128.185265,51.818966,1123.230 m,2.61000,-0.93000,352.23999,T,640,4.5,1000
389_RGB_110919.IIQ,389,16:51:11.221927,2120:60671.221927,XXXX,XXXX,-128.185855,51.821108,1123.889 m,2.58000,-0.42000,351.63000,T,640,4.5,1000
390_RGB_110920.IIQ,390,16:51:14.607786,2120:60674.607786,XXXX,XXXX,-128.186477,51.823227,1124.000 m,2.48000,-1.80000,350.89001,T,640,4.5,1000
391_RGB_110921.IIQ,391,16:51:18.020643,2120:60678.020643,XXXX,XXXX,-128.187153,51.825358,1123.909 m,2.27000,0.77000,350.07001,T,640,4.5,1000
392_RGB_110922.IIQ,392,16:51:21.406501,2120:60681.406501,XXXX,XXXX,-128.187823,51.827474,1123.809 m,2.21000,0.21000,350.66000,T,640,4.5,1000
393_RGB_110923.IIQ,393,16:51:24.805363,2120:60684.805363,XXXX,XXXX,-128.188488,51.829601,1123.379 m,2.22000,-0.14000,350.14999,T,640,4.5,1000
394_RGB_110924.IIQ,394,16:51:28.20522,2120:60688.20522,XXXX,XXXX,-128.189146,51.831733,1122.939 m,2.22000,3.52000,351.39999,T,640,4.5,1000
395_RGB_110925.IIQ,395,16:51:31.588083,2120:60691.588083,XXXX,XXXX,-128.189718,51.833863,1122.950 m,2.35000,0.33000,352.14001,T,640,4.5,1000
396_RGB_110926.IIQ,396,16:51:34.973942,2120:60694.973942,XXXX,XXXX,-128.190262,51.835996,1123.470 m,2.52000,0.42000,352.60999,T,640,4.5,1000
397_RGB_110927.IIQ,397,16:51:38.373801,2120:60698.373801,XXXX,XXXX,-128.190796,51.838136,1124.620 m,2.70000,-0.28000,352.67999,T,640,4.5,1000
398_RGB_110928.IIQ,398,16:51:41.774659,2120:60701.774659,XXXX,XXXX,-128.191332,51.840269,1126.680 m,2.81000,-0.94000,352.67001,T,640,4.5,1000
399_RGB_110929.IIQ,399,16:51:45.188517,2120:60705.188517,XXXX,XXXX,-128.191893,51.842401,1129.280 m,2.87000,-1.66000,351.70999,T,640,4.5,1000
400_RGB_110930.IIQ,400,16:51:48.632378,2120:60708.632378,XXXX,XXXX,-128.192512,51.844538,1131.160 m,2.54000,-0.61000,350.98001,T,640,4.5,1000
401_RGB_110931.IIQ,401,16:51:52.045879,2120:60712.045879,XXXX,XXXX,-128.193163,51.84665,1131.050 m,2.05000,-0.66000,350.59000,T,640,4.5,1000
402_RGB_110932.IIQ,402,16:51:55.489723,2120:60715.489723,XXXX,XXXX,-128.193843,51.848785,1129.050 m,1.72000,2.00000,350.76999,T,640,4.5,1000
403_RGB_110933.IIQ,403,16:51:58.886949,2120:60718.886949,XXXX,XXXX,-128.194469,51.850906,1126.430 m,1.57000,1.57000,352.16000,T,640,4.5,1000
404_RGB_110934.IIQ,404,16:52:02.282808,2120:60722.282808,XXXX,XXXX,-128.19505,51.853041,1123.779 m,1.79000,-0.05000,352.38000,T,640,4.5,1000
405_RGB_110935.IIQ,405,16:52:05.668262,2120:60725.668262,XXXX,XXXX,-128.195619,51.855179,1122.009 m,2.12000,0.62000,352.76001,T,640,4.5,1000
406_RGB_110936.IIQ,406,16:52:09.05311,2120:60729.05311,XXXX,XXXX,-128.196173,51.85732,1121.430 m,2.34000,-0.55000,352.82999,T,640,4.5,1000
407_RGB_110937.IIQ,407,16:52:12.425956,2120:60732.425956,XXXX,XXXX,-128.196733,51.85945,1121.700 m,2.44000,-0.52000,352.54001,T,640,4.5,1000
408_RGB_110938.IIQ,408,16:52:15.811245,2120:60735.811245,XXXX,XXXX,-128.197333,51.861583,1122.110 m,2.41000,-1.39000,351.53000,T,640,4.5,1000
409_RGB_110939.IIQ,409,16:52:19.197107,2120:60739.197107,XXXX,XXXX,-128.197989,51.863708,1122.019 m,2.33000,-0.56000,350.98001,T,640,4.5,1000
410_RGB_110940.IIQ,410,16:52:22.581961,2120:60742.581961,XXXX,XXXX,-128.198664,51.865832,1121.000 m,2.24000,-2.92000,350.51999,T,640,4.5,1000
411_RGB_110941.IIQ,411,16:52:25.967821,2120:60745.967821,XXXX,XXXX,-128.199376,51.867955,1119.650 m,2.02000,1.02000,350.75000,T,640,4.5,1000
412_RGB_110942.IIQ,412,16:52:29.335685,2120:60749.335685,XXXX,XXXX,-128.200059,51.870073,1118.440 m,2.02000,0.95000,351.01999,T,640,4.5,1000
413_RGB_110943.IIQ,413,16:52:32.708048,2120:60752.708048,XXXX,XXXX,-128.200713,51.872201,1117.500 m,2.08000,2.25000,351.92001,T,640,4.5,1000
414_RGB_110944.IIQ,414,16:52:36.061898,2120:60756.061898,XXXX,XXXX,-128.201302,51.874324,1116.869 m,2.30000,0.48000,352.82999,T,640,4.5,1000
415_RGB_110945.IIQ,415,16:52:39.449267,2120:60759.449267,XXXX,XXXX,-128.201856,51.87647,1116.809 m,2.49000,0.97000,353.39001,T,640,4.5,1000
416_RGB_110946.IIQ,416,16:52:42.819127,2120:60762.819127,XXXX,XXXX,-128.202381,51.878602,1117.379 m,2.58000,-0.87000,353.17001,T,640,4.5,1000
417_RGB_110947.IIQ,417,16:52:46.220985,2120:60766.220985,XXXX,XXXX,-128.202927,51.880749,1117.769 m,2.41000,-0.47000,352.54999,T,640,4.5,1000
418_RGB_110948.IIQ,418,16:52:49.589846,2120:60769.589846,XXXX,XXXX,-128.203481,51.882873,1117.180 m,2.24000,-0.09000,352.78000,T,640,4.5,1000
419_RGB_110949.IIQ,419,16:52:52.989133,2120:60772.989133,XXXX,XXXX,-128.204043,51.885018,1115.490 m,2.11000,-0.66000,352.39001,T,640,4.5,1000
420_RGB_110950.IIQ,420,16:52:56.346561,2120:60776.346561,XXXX,XXXX,-128.204622,51.887138,1113.119 m,2.03000,-0.66000,352.35001,T,640,4.5,1000
421_RGB_110951.IIQ,421,16:52:59.73183,2120:60779.73183,XXXX,XXXX,-128.205221,51.889279,1110.779 m,2.04000,-1.98000,351.92001,T,640,4.5,1000
422_RGB_110952.IIQ,422,16:53:03.088283,2120:60783.088283,XXXX,XXXX,-128.205863,51.891403,1108.589 m,2.07000,-1.44000,350.92001,T,640,4.5,1000
423_RGB_110953.IIQ,423,16:53:06.460141,2120:60786.460141,XXXX,XXXX,-128.206561,51.893533,1106.759 m,2.06000,1.23000,350.50000,T,640,4.5,1000
