Filename,GPS Event,GPS Time,Weeks:Seconds,Line Number,Number in Line,Longitude,Latitude,Altitude,Pitch,Roll,Yaw,Yaw Type,ISO,Aperture,Shutter Speed 1/#
2096_163492.3549952C000621-24-34.354_NIR_67209_126056.IIQ,2,24:34.4,2096:163492.354995,XXXX,XXXX,-121.889148,50.669739,386.570 m,0.72,-0.45,359.95001,T,1250,4,640
2096_163497.3597663C000621-24-39.359_NIR_67210_126057.IIQ,3,24:39.4,2096:163497.359766,XXXX,XXXX,-121.889144,50.669738,386.600 m,0.74,-0.44,359.95999,T,1250,4,640
2096_163502.3558874C000621-24-44.355_NIR_67211_126058.IIQ,4,24:44.4,2096:163502.355887,XXXX,XXXX,-121.88911,50.6697,386.660 m,0.74,-0.43,113.27,T,1250,4,640
2096_163507.3563245C000621-24-49.356_NIR_67212_126059.IIQ,5,24:49.4,2096:163507.356324,XXXX,XXXX,-121.889114,50.669701,386.640 m,0.73,-0.43,113.28,T,1250,4,640
2096_163512.3564076C000621-24-54.356_NIR_67213_126060.IIQ,6,24:54.4,2096:163512.356407,XXXX,XXXX,-121.889112,50.669701,386.610 m,0.75,-0.42,113.27,T,1250,4,640
2096_163517.3568827C000621-24-59.356_NIR_67214_126061.IIQ,7,24:59.4,2096:163517.356882,XXXX,XXXX,-121.889111,50.669701,386.580 m,0.78,-0.41,113.27,T,1250,4,640
2096_163522.3559298C000621-25-04.355_NIR_67215_126062.IIQ,8,25:04.4,2096:163522.355929,XXXX,XXXX,-121.889113,50.669701,386.540 m,0.8,-0.4,113.27,T,1250,4,640
2096_163527.356449C000621-25-09.356_NIR_67216_126063.IIQ,9,25:09.4,2096:163527.35644,XXXX,XXXX,-121.889114,50.669701,386.490 m,0.82,-0.4,113.26,T,1250,4,640
2096_164516.39359634C000621-41-38.393_NIR_67241_126088.IIQ,34,41:38.4,2096:164516.393596,XXXX,XXXX,-122.267623,50.798534,3455.199 m,5.81,0.87,302.72,T,1250,5.6,640
2096_164521.39269535C000621-41-43.392_NIR_67242_126089.IIQ,35,41:43.4,2096:164521.392695,XXXX,XXXX,-122.271689,50.800233,3470.519 m,5.82,-0.35,302.57999,T,1250,5.6,2000
2096_164526.39274836C000621-41-48.392_NIR_67243_126090.IIQ,36,41:48.4,2096:164526.392748,XXXX,XXXX,-122.275748,50.801932,3487.269 m,6.04,0.99,303.13,T,1000,5.6,2500
2096_164531.39226337C000621-41-53.392_NIR_67244_126091.IIQ,37,41:53.4,2096:164531.392263,XXXX,XXXX,-122.279759,50.803652,3504.490 m,6.25,0.71,304.5,T,1000,5.6,2500
2096_164536.39227438C000621-41-58.392_NIR_67245_126092.IIQ,38,41:58.4,2096:164536.392274,XXXX,XXXX,-122.28372,50.805389,3521.030 m,6.19,0.06,305.07001,T,1000,5.6,2500
2096_164541.39283239C000621-42-03.392_NIR_67246_126093.IIQ,39,42:03.4,2096:164541.392832,XXXX,XXXX,-122.287651,50.807138,3535.730 m,5.86,-0.1,305.20999,T,1000,5.6,2500
2096_164580.11015440C000621-42-42.110_NIR_67247_126094.IIQ,40,42:42.1,2096:164580.110154,XXXX,XXXX,-122.317769,50.820801,3683.190 m,5.69,1.25,306.17001,T,1000,5.6,2500
2096_164585.10793141C000621-42-47.107_NIR_67248_126095.IIQ,41,42:47.1,2096:164585.107931,XXXX,XXXX,-122.321429,50.82254,3690.539 m,3.92,-7,303.92999,T,1000,5.6,2500
2096_164590.10972142C000621-42-52.109_NIR_67249_126096.IIQ,42,42:52.1,2096:164590.109721,XXXX,XXXX,-122.325372,50.824155,3687.970 m,2.99,-3.53,301.67001,T,800,5.6,2500
2096_164595.10948443C000621-42-57.109_NIR_67250_126097.IIQ,43,42:57.1,2096:164595.109484,XXXX,XXXX,-122.329546,50.825631,3698.059 m,6.65,-8.68,296.19,T,800,5.6,2500
2096_164605.10942244C000621-43-07.109_NIR_67252_126099.IIQ,44,43:07.1,2096:164605.109422,XXXX,XXXX,-122.338363,50.827734,3733.720 m,5.11,0,288.92001,T,1250,5.6,2500
2096_164610.10918245C000621-43-12.109_NIR_67253_126100.IIQ,45,43:12.1,2096:164610.109182,XXXX,XXXX,-122.34289,50.828628,3741.529 m,4.4,-1.41,287.29001,T,1250,5.6,2000
2096_164615.10894546C000621-43-17.108_NIR_67254_126101.IIQ,46,43:17.1,2096:164615.108945,XXXX,XXXX,-122.347525,50.829448,3746.139 m,4.57,-3.53,285.51999,T,1250,5.6,2000
2096_164620.10883647C000621-43-22.108_NIR_67255_126102.IIQ,47,43:22.1,2096:164620.108836,XXXX,XXXX,-122.352261,50.830129,3755.620 m,5.86,-3.63,282.54999,T,1250,5.6,2000
2096_164625.10947348C000621-43-27.109_NIR_67256_126103.IIQ,48,43:27.1,2096:164625.109473,XXXX,XXXX,-122.357013,50.830659,3773.450 m,6.96,-2.57,280.34,T,1250,5.6,2000
2096_164630.10935749C000621-43-32.109_NIR_67257_126104.IIQ,49,43:32.1,2096:164630.109357,XXXX,XXXX,-122.361716,50.831075,3793.110 m,5.24,1.24,279.79001,T,1250,5.6,2000
2096_164635.10899650C000621-43-37.108_NIR_67258_126105.IIQ,50,43:37.1,2096:164635.108996,XXXX,XXXX,-122.366427,50.831508,3800.199 m,4.32,0.74,280.45999,T,1250,5.6,2000
2096_164640.10878951C000621-43-42.108_NIR_67259_126106.IIQ,51,43:42.1,2096:164640.108789,XXXX,XXXX,-122.371185,50.831979,3809.680 m,5.05,0.26,280.82999,T,1250,5.6,1600
2096_164645.1095252C000621-43-47.109_NIR_67260_126107.IIQ,52,43:47.1,2096:164645.10952,XXXX,XXXX,-122.375967,50.832465,3818.980 m,3.32,-2.61,280.64001,T,1250,5.6,1600
2096_164667.25495653C000621-44-09.254_NIR_67261_126108.IIQ,53,44:09.3,2096:164667.254956,XXXX,XXXX,-122.398657,50.834221,3819.210 m,2.7,-0.51,278.76001,T,1250,5.6,1600
2096_164672.25456754C000621-44-14.254_NIR_67262_126109.IIQ,54,44:14.3,2096:164672.254567,XXXX,XXXX,-122.403951,50.834605,3825.660 m,3.57,-0.6,278.95999,T,1250,5.6,1600
2096_164677.2559155C000621-44-19.255_NIR_67263_126110.IIQ,55,44:19.3,2096:164677.25591,XXXX,XXXX,-122.409234,50.834971,3836.960 m,2.46,-0.06,278.39001,T,1250,5.6,1600
2096_164682.25510156C000621-44-24.255_NIR_67264_126111.IIQ,56,44:24.3,2096:164682.255101,XXXX,XXXX,-122.41456,50.835318,3831.969 m,1.99,0.23,278.41,T,1250,5.6,1600
2096_164687.25608757C000621-44-29.256_NIR_67265_126112.IIQ,57,44:29.3,2096:164687.256087,XXXX,XXXX,-122.41997,50.835679,3832.559 m,2.59,-0.96,278.20001,T,1250,5.6,1600
2096_164692.25486658C000621-44-34.254_NIR_67266_126113.IIQ,58,44:34.3,2096:164692.254866,XXXX,XXXX,-122.425415,50.836014,3837.690 m,3.14,-0.8,277.42001,T,1250,5.6,1600
2096_164697.25501859C000621-44-39.255_NIR_67267_126114.IIQ,59,44:39.3,2096:164697.255018,XXXX,XXXX,-122.430876,50.836306,3844.110 m,2.42,-0.3,276.84,T,1250,5.6,1600
2096_164702.25581960C000621-44-44.255_NIR_67268_126115.IIQ,60,44:44.3,2096:164702.255819,XXXX,XXXX,-122.436368,50.836586,3847.899 m,2.62,0.4,276.95999,T,1250,5.6,1600
2096_164750.12161961C000621-45-32.121_NIR_67269_126116.IIQ,61,45:32.1,2096:164750.121619,XXXX,XXXX,-122.490387,50.83993,3848.709 m,0.34,-0.67,275.95001,T,1250,5.6,1600
2096_164755.12338162C000621-45-37.123_NIR_67270_126117.IIQ,62,45:37.1,2096:164755.123381,XXXX,XXXX,-122.496358,50.840174,3842.849 m,1.26,-1.86,275.45001,T,1250,5.6,1600
2096_165153.34505563C000621-52-15.345_NIR_67271_126118.IIQ,63,52:15.3,2096:165153.345055,XXXX,XXXX,-122.909276,50.832301,4223.029 m,2.06,-0.6,240.59,T,1250,5.6,1600
2096_165158.34608764C000621-52-20.346_NIR_67272_126119.IIQ,64,52:20.3,2096:165158.346087,XXXX,XXXX,-122.914017,50.830169,4222.819 m,2.33,-0.93,240.74001,T,1000,5.6,1600
2096_165163.34555965C000621-52-25.345_NIR_67273_126120.IIQ,65,52:25.3,2096:165163.345559,XXXX,XXXX,-122.918729,50.828031,4224.139 m,2.24,-0.45,239.98,T,1000,5.6,1600
2096_165168.34563866C000621-52-30.345_NIR_67274_126121.IIQ,66,52:30.3,2096:165168.345638,XXXX,XXXX,-122.923427,50.825898,4225.450 m,2.24,-0.04,240.03,T,1000,5.6,1600
2096_165173.34541367C000621-52-35.345_NIR_67275_126122.IIQ,67,52:35.3,2096:165173.345413,XXXX,XXXX,-122.928116,50.823774,4227.289 m,2.29,-0.38,240.25,T,1000,5.6,1600
2096_165178.34518568C000621-52-40.345_NIR_67276_126123.IIQ,68,52:40.3,2096:165178.345185,XXXX,XXXX,-122.932798,50.82165,4227.430 m,2.07,-0.95,240.28999,T,1000,5.6,1600
2096_165183.34557169C000621-52-45.345_NIR_67277_126124.IIQ,69,52:45.3,2096:165183.345571,XXXX,XXXX,-122.937474,50.81951,4226.229 m,2.11,-0.65,240.06,T,1000,5.6,1600
2096_165188.34573570C000621-52-50.345_NIR_67278_126125.IIQ,70,52:50.3,2096:165188.345735,XXXX,XXXX,-122.942148,50.817359,4224.050 m,2.31,-0.6,239.97,T,1250,5.6,1600
2096_165193.34608271C000621-52-55.346_NIR_67279_126126.IIQ,71,52:55.3,2096:165193.346082,XXXX,XXXX,-122.946818,50.81521,4223.959 m,2.43,0.07,239.59,T,1250,5.6,1250
2096_165198.34628572C000621-53-00.346_NIR_67280_126127.IIQ,72,53:00.3,2096:165198.346285,XXXX,XXXX,-122.951487,50.813073,4226.710 m,2.21,-0.8,240.05,T,1250,5.6,1000
2096_165203.34606873C000621-53-05.346_NIR_67281_126128.IIQ,73,53:05.3,2096:165203.346068,XXXX,XXXX,-122.956153,50.810938,4227.220 m,2,0.14,240.23,T,1250,5.6,800
2096_165208.34583474C000621-53-10.345_NIR_67282_126129.IIQ,74,53:10.3,2096:165208.345834,XXXX,XXXX,-122.960849,50.808818,4226.909 m,2,0.57,241.12,T,1250,5.6,640
2096_165213.34560875C000621-53-15.345_NIR_67283_126130.IIQ,75,53:15.3,2096:165213.345608,XXXX,XXXX,-122.965583,50.806718,4225.909 m,1.96,0.17,241.03999,T,1250,5.6,640
2096_165218.34538276C000621-53-20.345_NIR_67284_126131.IIQ,76,53:20.3,2096:165218.345382,XXXX,XXXX,-122.970341,50.804629,4223.659 m,2.23,-0.11,240.92,T,1250,5.6,640
2096_165223.34660577C000621-53-25.346_NIR_67285_126132.IIQ,77,53:25.3,2096:165223.346605,XXXX,XXXX,-122.975109,50.802555,4223.300 m,2.39,0.26,240.53999,T,1000,5.6,640
2096_165228.34592978C000621-53-30.345_NIR_67286_126133.IIQ,78,53:30.3,2096:165228.345929,XXXX,XXXX,-122.979874,50.800499,4225.159 m,2.26,-0.02,241.02,T,640,5.6,640
2096_165233.34557879C000621-53-35.345_NIR_67287_126134.IIQ,79,53:35.3,2096:165233.345578,XXXX,XXXX,-122.984636,50.798453,4227.729 m,2.31,-0.02,241.03,T,500,5.6,640
2096_165243.34608280C000621-53-45.346_NIR_67289_126136.IIQ,80,53:45.3,2096:165243.346082,XXXX,XXXX,-122.994165,50.794373,4231.449 m,1.85,-0.12,241.53,T,400,5.6,640
2096_165248.34648581C000621-53-50.346_NIR_67290_126137.IIQ,81,53:50.3,2096:165248.346485,XXXX,XXXX,-122.998947,50.792329,4229.250 m,1.82,-0.21,241.75999,T,320,5.6,640
2096_165253.3465982C000621-53-55.346_NIR_67291_126138.IIQ,82,53:55.3,2096:165253.34659,XXXX,XXXX,-123.003746,50.790287,4226.980 m,2.17,-0.55,242.03,T,320,5.6,640
2096_165258.34602983C000621-54-00.346_NIR_67292_126139.IIQ,83,54:00.3,2096:165258.346029,XXXX,XXXX,-123.008546,50.788247,4227.239 m,2.25,-0.74,241.94,T,320,5.6,640
2096_165263.34710884C000621-54-05.347_NIR_67293_126140.IIQ,84,54:05.3,2096:165263.347108,XXXX,XXXX,-123.013337,50.786203,4228.529 m,2.18,-0.21,242.12,T,320,5.6,640
2096_165268.34684585C000621-54-10.346_NIR_67294_126141.IIQ,85,54:10.3,2096:165268.346845,XXXX,XXXX,-123.018119,50.784161,4230.250 m,2.14,-0.82,241.83,T,320,5.6,640
2096_165273.34659786C000621-54-15.346_NIR_67295_126142.IIQ,86,54:15.3,2096:165273.346597,XXXX,XXXX,-123.022886,50.782103,4230.720 m,1.92,-0.5,241.39,T,320,5.6,640
2096_165278.34711787C000621-54-20.347_NIR_67296_126143.IIQ,87,54:20.3,2096:165278.347117,XXXX,XXXX,-123.027663,50.780042,4229.690 m,1.94,-0.22,241.62,T,320,5.6,640
2096_165283.34578688C000621-54-25.345_NIR_67297_126144.IIQ,88,54:25.3,2096:165283.345786,XXXX,XXXX,-123.032453,50.777986,4228.729 m,1.97,-0.53,242.11,T,320,5.6,640
2096_165288.34685689C000621-54-30.346_NIR_67298_126145.IIQ,89,54:30.3,2096:165288.346856,XXXX,XXXX,-123.037254,50.775929,4228.119 m,2.07,-0.76,241.56,T,320,5.6,640
2096_165293.34644690C000621-54-35.346_NIR_67299_126146.IIQ,90,54:35.3,2096:165293.346446,XXXX,XXXX,-123.04205,50.773868,4227.719 m,2.1,-0.71,241.28,T,320,5.6,640
2096_165298.3472191C000621-54-40.347_NIR_67300_126147.IIQ,91,54:40.3,2096:165298.34721,XXXX,XXXX,-123.046844,50.771802,4227.630 m,2.05,-0.36,241.14999,T,320,5.6,640
2096_165303.34573192C000621-54-45.345_NIR_67301_126148.IIQ,92,54:45.3,2096:165303.345731,XXXX,XXXX,-123.05164,50.769741,4227.270 m,2.04,-0.15,241.14999,T,320,5.6,640
2096_165308.34675793C000621-54-50.346_NIR_67302_126149.IIQ,93,54:50.3,2096:165308.346757,XXXX,XXXX,-123.056446,50.767691,4228.600 m,1.96,-0.24,241.41,T,320,5.6,800
2096_165313.34621794C000621-54-55.346_NIR_67303_126150.IIQ,94,54:55.3,2096:165313.346217,XXXX,XXXX,-123.061254,50.765651,4230.819 m,1.99,-0.86,241.64999,T,320,5.6,800
2096_165318.3463795C000621-55-00.346_NIR_67304_126151.IIQ,95,55:00.3,2096:165318.34637,XXXX,XXXX,-123.066061,50.7636,4231.810 m,1.86,-0.83,241.85001,T,320,5.6,800
2096_165323.34697396C000621-55-05.346_NIR_67305_126152.IIQ,96,55:05.3,2096:165323.346973,XXXX,XXXX,-123.07087,50.761538,4232.100 m,1.89,-0.94,242.42,T,320,5.6,800
2096_165328.34688697C000621-55-10.346_NIR_67306_126153.IIQ,97,55:10.3,2096:165328.346886,XXXX,XXXX,-123.075664,50.759458,4230.289 m,1.89,-0.25,241.8,T,320,5.6,800
2096_165333.3462698C000621-55-15.346_NIR_67307_126154.IIQ,98,55:15.3,2096:165333.34626,XXXX,XXXX,-123.080436,50.757382,4227.380 m,2.23,-0.22,241.73,T,320,5.6,800
2096_165338.34739199C000621-55-20.347_NIR_67308_126155.IIQ,99,55:20.3,2096:165338.347391,XXXX,XXXX,-123.085173,50.755321,4227.679 m,2.53,0.07,241.77,T,320,5.6,800
2096_165343.346014100C000621-55-25.346_NIR_67309_126156.IIQ,100,55:25.3,2096:165343.346014,XXXX,XXXX,-123.089864,50.753281,4229.509 m,2.55,-0.91,241.97,T,320,5.6,800
2096_165348.346944101C000621-55-30.346_NIR_67310_126157.IIQ,101,55:30.3,2096:165348.346944,XXXX,XXXX,-123.094508,50.751243,4230.050 m,2.39,-0.05,241.56,T,320,5.6,800
2096_165353.346247102C000621-55-35.346_NIR_67311_126158.IIQ,102,55:35.3,2096:165353.346247,XXXX,XXXX,-123.099128,50.749228,4229.859 m,2.32,0.34,241.66,T,320,5.6,1000
2096_165358.346484103C000621-55-40.346_NIR_67312_126159.IIQ,103,55:40.3,2096:165358.346484,XXXX,XXXX,-123.103736,50.747248,4229.939 m,2.59,0.16,241.24001,T,320,5.6,1000
2096_165363.347096104C000621-55-45.347_NIR_67313_126160.IIQ,104,55:45.3,2096:165363.347096,XXXX,XXXX,-123.108316,50.74529,4231.849 m,2.51,-0.68,241.52,T,320,5.6,1000
2096_165368.346892105C000621-55-50.346_NIR_67314_126161.IIQ,105,55:50.3,2096:165368.346892,XXXX,XXXX,-123.112856,50.743339,4232.319 m,2.39,-0.57,241.64,T,320,5.6,1000
2096_165373.34648106C000621-55-55.346_NIR_67315_126162.IIQ,106,55:55.3,2096:165373.34648,XXXX,XXXX,-123.117361,50.741387,4232.450 m,2.54,-0.67,241.38,T,320,5.6,1000
2096_165378.347393107C000621-56-00.347_NIR_67316_126163.IIQ,107,56:00.3,2096:165378.347393,XXXX,XXXX,-123.121821,50.739424,4233.039 m,2.6,-0.95,241.60001,T,320,5.6,1000
2096_165383.34734108C000621-56-05.347_NIR_67317_126164.IIQ,108,56:05.3,2096:165383.34734,XXXX,XXXX,-123.126238,50.737456,4232.809 m,2.29,0.1,241.7,T,400,5.6,1000
2096_165388.346512109C000621-56-10.346_NIR_67318_126165.IIQ,109,56:10.3,2096:165388.346512,XXXX,XXXX,-123.130644,50.735511,4233.339 m,2.45,0.42,242.71001,T,400,5.6,1000
2096_165393.346885110C000621-56-15.346_NIR_67319_126166.IIQ,110,56:15.3,2096:165393.346885,XXXX,XXXX,-123.13504,50.733596,4235.430 m,2.4,0.12,243.19,T,400,5.6,1000
2096_165398.347245111C000621-56-20.347_NIR_67320_126167.IIQ,111,56:20.3,2096:165398.347245,XXXX,XXXX,-123.139414,50.731698,4236.900 m,2.27,-0.16,243.32001,T,320,5.6,1000
2096_165403.347432112C000621-56-25.347_NIR_67321_126168.IIQ,112,56:25.3,2096:165403.347432,XXXX,XXXX,-123.143769,50.729812,4232.449 m,2.23,0.14,243.13,T,320,5.6,1250
2096_165408.346448113C000621-56-30.346_NIR_67322_126169.IIQ,113,56:30.3,2096:165408.346448,XXXX,XXXX,-123.148127,50.727939,4227.939 m,2.4,0.33,242.02,T,320,5.6,1250
2096_165413.346977114C000621-56-35.346_NIR_67323_126170.IIQ,114,56:35.3,2096:165413.346977,XXXX,XXXX,-123.152482,50.726078,4228.049 m,2.88,-0.25,243.37,T,320,5.6,1250
2096_165418.346589115C000621-56-40.346_NIR_67324_126171.IIQ,115,56:40.3,2096:165418.346589,XXXX,XXXX,-123.15678,50.724196,4230.240 m,2.79,-0.88,242.74001,T,320,5.6,1250
2096_165423.347526116C000621-56-45.347_NIR_67325_126172.IIQ,116,56:45.3,2096:165423.347526,XXXX,XXXX,-123.161021,50.722293,4233.020 m,2.59,-0.34,242.39,T,320,5.6,1250
2096_165428.34677117C000621-56-50.346_NIR_67326_126173.IIQ,117,56:50.3,2096:165428.34677,XXXX,XXXX,-123.165229,50.720387,4233.590 m,2.22,-0.09,242.25999,T,320,5.6,1250
2096_165433.347065118C000621-56-55.347_NIR_67327_126174.IIQ,118,56:55.3,2096:165433.347065,XXXX,XXXX,-123.169439,50.718484,4231.630 m,2.22,-0.04,242.41,T,320,5.6,1250
2096_165438.346837119C000621-57-00.346_NIR_67328_126175.IIQ,119,57:00.3,2096:165438.346837,XXXX,XXXX,-123.173648,50.716583,4227.219 m,2.68,-0.64,242.42,T,400,5.6,1250
2096_165443.34761120C000621-57-05.347_NIR_67329_126176.IIQ,120,57:05.3,2096:165443.34761,XXXX,XXXX,-123.177828,50.714672,4224.130 m,2.92,-0.72,242.23,T,400,5.6,1250
2096_165448.347065121C000621-57-10.347_NIR_67330_126177.IIQ,121,57:10.3,2096:165448.347065,XXXX,XXXX,-123.181957,50.712748,4222.670 m,3.32,-0.89,242.00999,T,400,5.6,1250
2096_165453.347149122C000621-57-15.347_NIR_67331_126178.IIQ,122,57:15.3,2096:165453.347149,XXXX,XXXX,-123.186025,50.710812,4224.590 m,3.35,-0.24,241.37,T,400,5.6,1250
2096_165458.347451123C000621-57-20.347_NIR_67332_126179.IIQ,123,57:20.3,2096:165458.347451,XXXX,XXXX,-123.190055,50.708878,4224.559 m,2.99,0,241.58,T,320,5.6,1250
2096_165463.347306124C000621-57-25.347_NIR_67333_126180.IIQ,124,57:25.3,2096:165463.347306,XXXX,XXXX,-123.194071,50.706955,4222.620 m,3.16,-0.27,241.64999,T,320,5.6,1600
2096_165468.346954125C000621-57-30.346_NIR_67334_126181.IIQ,125,57:30.3,2096:165468.346954,XXXX,XXXX,-123.198069,50.705038,4222.739 m,3.19,-0.48,242.14,T,320,5.6,1600
2096_165473.347233126C000621-57-35.347_NIR_67335_126182.IIQ,126,57:35.3,2096:165473.347233,XXXX,XXXX,-123.202052,50.703116,4219.480 m,2.84,-0.92,241.52,T,320,5.6,1600
2096_165478.347458127C000621-57-40.347_NIR_67336_126183.IIQ,127,57:40.3,2096:165478.347458,XXXX,XXXX,-123.20603,50.701169,4213.270 m,2.55,2.54,241.75999,T,400,5.6,1600
2096_165483.34777128C000621-57-45.347_NIR_67337_126184.IIQ,128,57:45.3,2096:165483.34777,XXXX,XXXX,-123.210064,50.699282,4209.590 m,3.79,2.01,242.78999,T,400,5.6,1600
2096_165488.347961129C000621-57-50.347_NIR_67338_126185.IIQ,129,57:50.3,2096:165488.347961,XXXX,XXXX,-123.214103,50.697476,4211.719 m,4.36,0.74,243.58,T,400,5.6,1600
2096_165493.347314130C000621-57-55.347_NIR_67339_126186.IIQ,130,57:55.3,2096:165493.347314,XXXX,XXXX,-123.218096,50.69572,4215.310 m,4.29,0.12,244.08,T,400,5.6,1600
2096_165498.348083131C000621-58-00.348_NIR_67340_126187.IIQ,131,58:00.3,2096:165498.348083,XXXX,XXXX,-123.222039,50.693992,4217.750 m,4.19,1.13,243.91,T,400,5.6,1600
2096_165503.346855132C000621-58-05.346_NIR_67341_126188.IIQ,132,58:05.3,2096:165503.346855,XXXX,XXXX,-123.225945,50.692282,4219.750 m,3.98,-0.7,243.97,T,320,5.6,1600
2096_165508.346966133C000621-58-10.346_NIR_67342_126189.IIQ,133,58:10.3,2096:165508.346966,XXXX,XXXX,-123.229823,50.690565,4220.470 m,3.77,-0.73,243.85001,T,1250,5.6,2500
2096_165513.347401134C000621-58-15.347_NIR_67343_126190.IIQ,134,58:15.3,2096:165513.347401,XXXX,XXXX,-123.233678,50.688839,4220.079 m,3.74,-0.21,243.44,T,1250,5.6,640
2096_165518.34817135C000621-58-20.348_NIR_67344_126191.IIQ,135,58:20.3,2096:165518.34817,XXXX,XXXX,-123.237521,50.687108,4219.909 m,3.61,-0.21,243.61,T,1250,5.6,2500
2096_165523.347942136C000621-58-25.347_NIR_67345_126192.IIQ,136,58:25.3,2096:165523.347942,XXXX,XXXX,-123.24136,50.685381,4218.560 m,3.59,0.46,244.12,T,1250,5.6,640
2096_165528.346975137C000621-58-30.346_NIR_67346_126193.IIQ,137,58:30.3,2096:165528.346975,XXXX,XXXX,-123.245206,50.683668,4216.519 m,3.71,-0.59,243.96001,T,1250,5.6,2500
2096_165533.348483138C000621-58-35.348_NIR_67347_126194.IIQ,138,58:35.3,2096:165533.348483,XXXX,XXXX,-123.249036,50.681953,4214.170 m,3.96,-0.37,243.73,T,1250,5,640
2096_165538.347475139C000621-58-40.347_NIR_67348_126195.IIQ,139,58:40.3,2096:165538.347475,XXXX,XXXX,-123.25284,50.680248,4213.210 m,4.09,3.93,244.61,T,1250,5.6,1600
2096_165662.300572140C000622-00-44.300_NIR_67349_126196.IIQ,140,00:44.3,2096:165662.300572,XXXX,XXXX,-123.205958,50.685848,4121.949 m,8.39,3.5,46.14,T,1250,5.6,1000
2096_165667.30102141C000622-00-49.301_NIR_67350_126197.IIQ,141,00:49.3,2096:165667.30102,XXXX,XXXX,-123.201815,50.687737,4140.900 m,6.7,-0.07,46.36,T,1000,5.6,2500
2096_165672.301773142C000622-00-54.301_NIR_67351_126198.IIQ,142,00:54.3,2096:165672.301773,XXXX,XXXX,-123.197665,50.689552,4143.509 m,4,2.35,48.79,T,640,5.6,2500
2096_165677.30152143C000622-00-59.301_NIR_67352_126199.IIQ,143,00:59.3,2096:165677.30152,XXXX,XXXX,-123.193388,50.691318,4140.750 m,5.89,-0.04,48.47,T,640,5.6,2500
2096_165682.301269144C000622-01-04.301_NIR_67353_126200.IIQ,144,01:04.3,2096:165682.301269,XXXX,XXXX,-123.189159,50.693113,4142.250 m,5.85,-0.32,46.77,T,1250,5.6,800
2096_165687.301017145C000622-01-09.301_NIR_67354_126201.IIQ,145,01:09.3,2096:165687.301017,XXXX,XXXX,-123.184996,50.69494,4144.579 m,5.6,0.48,46.92,T,1250,5.6,2500
2096_165692.301767146C000622-01-14.301_NIR_67355_126202.IIQ,146,01:14.3,2096:165692.301767,XXXX,XXXX,-123.180812,50.696748,4147.220 m,5.65,1.11,47.65,T,1250,5.6,640
2096_165697.30152147C000622-01-19.301_NIR_67356_126203.IIQ,147,01:19.3,2096:165697.30152,XXXX,XXXX,-123.176594,50.698514,4152.829 m,6.12,-0.52,48.18,T,1250,5.6,2000
2096_165702.301268148C000622-01-24.301_NIR_67357_126204.IIQ,148,01:24.3,2096:165702.301268,XXXX,XXXX,-123.172407,50.70027,4160.569 m,5.36,-0.12,47.43,T,1250,5.6,640
2096_165707.301019149C000622-01-29.301_NIR_67358_126205.IIQ,149,01:29.3,2096:165707.301019,XXXX,XXXX,-123.168208,50.702035,4160.000 m,3.95,-0.27,48.34,T,1250,5.6,1600
2096_165712.301769150C000622-01-34.301_NIR_67359_126206.IIQ,150,01:34.3,2096:165712.301769,XXXX,XXXX,-123.163951,50.703842,4153.520 m,3.47,-1.81,47.3,T,1250,5.6,800
2096_165717.30152151C000622-01-39.301_NIR_67360_126207.IIQ,151,01:39.3,2096:165717.30152,XXXX,XXXX,-123.159696,50.705733,4150.659 m,4.59,-0.04,47.44,T,1250,5.6,1600
2096_165722.300815152C000622-01-44.300_NIR_67361_126208.IIQ,152,01:44.3,2096:165722.300815,XXXX,XXXX,-123.155435,50.707629,4156.430 m,6.02,-0.07,48.23,T,1250,5.6,800
2096_165727.301017153C000622-01-49.301_NIR_67362_126209.IIQ,153,01:49.3,2096:165727.301017,XXXX,XXXX,-123.151195,50.709481,4168.130 m,6.12,0.32,48.63,T,1250,5.6,2500
2096_165732.301766154C000622-01-54.301_NIR_67363_126210.IIQ,154,01:54.3,2096:165732.301766,XXXX,XXXX,-123.146966,50.711291,4174.809 m,4.35,-0.36,48.51,T,1250,4.5,640
2096_165737.301519155C000622-01-59.301_NIR_67364_126211.IIQ,155,01:59.3,2096:165737.301519,XXXX,XXXX,-123.142708,50.713125,4170.119 m,2.53,-0.14,48,T,1250,5.6,1600
2096_165742.301268156C000622-02-04.301_NIR_67365_126212.IIQ,156,02:04.3,2096:165742.301268,XXXX,XXXX,-123.138421,50.715043,4162.350 m,4.65,-0.44,47.7,T,1250,5.6,1600
2096_165747.302017157C000622-02-09.302_NIR_67366_126213.IIQ,157,02:09.3,2096:165747.302017,XXXX,XXXX,-123.134161,50.717008,4162.470 m,3.56,0.6,47.41,T,1250,5.6,1600
2096_165752.301765158C000622-02-14.301_NIR_67367_126214.IIQ,158,02:14.3,2096:165752.301765,XXXX,XXXX,-123.129838,50.718971,4153.630 m,2.42,1.7,48.92,T,1250,5.6,1600
2096_165757.301513159C000622-02-19.301_NIR_67368_126215.IIQ,159,02:19.3,2096:165757.301513,XXXX,XXXX,-123.125361,50.720918,4140.890 m,2.94,-0.13,49.08,T,1250,5.6,1600
2096_165762.302266160C000622-02-24.302_NIR_67369_126216.IIQ,160,02:24.3,2096:165762.302266,XXXX,XXXX,-123.120835,50.722886,4135.239 m,4.61,-0.45,48.4,T,1250,5.6,1600
2096_165767.302013161C000622-02-29.302_NIR_67370_126217.IIQ,161,02:29.3,2096:165767.302013,XXXX,XXXX,-123.116356,50.724861,4137.180 m,5.33,-0.47,48.27,T,1250,5.6,1600
2096_165772.300758162C000622-02-34.300_NIR_67371_126218.IIQ,162,02:34.3,2096:165772.300758,XXXX,XXXX,-123.111923,50.726805,4144.670 m,5.5,2.33,49.64,T,1250,5.6,1250
2096_165777.301509163C000622-02-39.301_NIR_67372_126219.IIQ,163,02:39.3,2096:165777.301509,XXXX,XXXX,-123.10747,50.728664,4153.250 m,5.14,0.36,51.88,T,1250,5.6,1250
2096_165782.301261164C000622-02-44.301_NIR_67373_126220.IIQ,164,02:44.3,2096:165782.301261,XXXX,XXXX,-123.103039,50.730495,4157.569 m,4.43,-2.13,50.63,T,1250,5.6,1250
2096_165787.302008165C000622-02-49.302_NIR_67374_126221.IIQ,165,02:49.3,2096:165787.302008,XXXX,XXXX,-123.0987,50.732395,4154.930 m,3.76,-0.14,49.54,T,1250,5.6,1250
2096_165792.301753166C000622-02-54.301_NIR_67375_126222.IIQ,166,02:54.3,2096:165792.301753,XXXX,XXXX,-123.094359,50.734323,4148.329 m,3.7,-0.73,48.75,T,1250,5.6,1250
2096_165797.301502167C000622-02-59.301_NIR_67376_126223.IIQ,167,02:59.3,2096:165797.301502,XXXX,XXXX,-123.089996,50.736265,4143.570 m,4.07,-0.8,49.36,T,1250,5.6,1250
2096_165802.302253168C000622-03-04.302_NIR_67377_126224.IIQ,168,03:04.3,2096:165802.302253,XXXX,XXXX,-123.085654,50.738234,4142.000 m,4.29,-0.81,48.7,T,1250,5.6,1250
2096_165807.302002169C000622-03-09.302_NIR_67378_126225.IIQ,169,03:09.3,2096:165807.302002,XXXX,XXXX,-123.081353,50.740228,4141.029 m,4.69,0.5,49.24,T,1250,5.6,1250
2096_165812.301751170C000622-03-14.301_NIR_67379_126226.IIQ,170,03:14.3,2096:165812.301751,XXXX,XXXX,-123.077049,50.742201,4140.409 m,4.83,0.61,49.12,T,1250,5.6,1250
2096_165817.3004171C000622-03-19.300_NIR_67380_126227.IIQ,171,03:19.3,2096:165817.3004,XXXX,XXXX,-123.072738,50.744148,4137.730 m,4.48,-0.34,48.86,T,1250,5.6,1250
2096_165822.30125172C000622-03-24.301_NIR_67381_126228.IIQ,172,03:24.3,2096:165822.30125,XXXX,XXXX,-123.068419,50.746091,4133.859 m,4.2,-0.82,47.94,T,1250,5.6,1250
2096_165827.301999173C000622-03-29.301_NIR_67382_126229.IIQ,173,03:29.3,2096:165827.301999,XXXX,XXXX,-123.064121,50.748057,4131.059 m,4.03,2.12,47.79,T,1250,5.6,1250
2096_165832.301752174C000622-03-34.301_NIR_67383_126230.IIQ,174,03:34.3,2096:165832.301752,XXXX,XXXX,-123.059763,50.749991,4128.829 m,4.07,0.91,49.52,T,1250,5.6,1250
2096_165837.301507175C000622-03-39.301_NIR_67384_126231.IIQ,175,03:39.3,2096:165837.301507,XXXX,XXXX,-123.055331,50.751886,4127.319 m,3.92,0.55,50.12,T,1250,5.6,1250
2096_165842.30225176C000622-03-44.302_NIR_67385_126232.IIQ,176,03:44.3,2096:165842.30225,XXXX,XXXX,-123.050843,50.753769,4124.320 m,3.58,0.36,51.29,T,1250,5.6,1250
2096_165847.301995177C000622-03-49.301_NIR_67386_126233.IIQ,177,03:49.3,2096:165847.301995,XXXX,XXXX,-123.046298,50.755653,4118.920 m,3.2,0.54,51.85,T,1250,5.6,1250
2096_165852.302749178C000622-03-54.302_NIR_67387_126234.IIQ,178,03:54.3,2096:165852.302749,XXXX,XXXX,-123.04169,50.757543,4114.359 m,4.27,0.63,51.83,T,1250,5.6,1250
2096_165857.301547179C000622-03-59.301_NIR_67388_126235.IIQ,179,03:59.3,2096:165857.301547,XXXX,XXXX,-123.037079,50.759414,4120.859 m,6.51,-0.5,52.36,T,1250,5.6,1000
2096_165862.30224180C000622-04-04.302_NIR_67389_126236.IIQ,180,04:04.3,2096:165862.30224,XXXX,XXXX,-123.032581,50.761239,4137.640 m,7.97,-0.59,52.13,T,1250,5.6,1000
2096_165867.301994181C000622-04-09.301_NIR_67390_126237.IIQ,181,04:09.3,2096:165867.301994,XXXX,XXXX,-123.028243,50.763,4154.170 m,7.55,-0.46,51.87,T,1250,5.6,1000
2096_165872.30274182C000622-04-14.302_NIR_67391_126238.IIQ,182,04:14.3,2096:165872.30274,XXXX,XXXX,-123.024026,50.764731,4160.329 m,5.14,-1.47,50.84,T,1250,5.6,1000
2096_165877.302487183C000622-04-19.302_NIR_67392_126239.IIQ,183,04:19.3,2096:165877.302487,XXXX,XXXX,-123.019868,50.766531,4149.970 m,1.9,-0.39,49.53,T,1250,5.6,1000
2096_165882.302237184C000622-04-24.302_NIR_67393_126240.IIQ,184,04:24.3,2096:165882.302237,XXXX,XXXX,-123.015646,50.76845,4127.580 m,0.85,-0.28,48.52,T,1250,5.6,1000
2096_165887.301984185C000622-04-29.301_NIR_67394_126241.IIQ,185,04:29.3,2096:165887.301984,XXXX,XXXX,-123.011327,50.770495,4107.389 m,3.26,-0.92,47.56,T,1250,5.6,1000
2096_165892.301916186C000622-04-34.301_NIR_67395_126242.IIQ,186,04:34.3,2096:165892.301916,XXXX,XXXX,-123.00701,50.772587,4111.380 m,8.41,-0.44,46.96,T,1250,5.6,1000
2096_165897.302481187C000622-04-39.302_NIR_67396_126243.IIQ,187,04:39.3,2096:165897.302481,XXXX,XXXX,-123.002859,50.774591,4135.510 m,9.32,-0.08,47.23,T,1250,5.6,1000
2096_165902.302231188C000622-04-44.302_NIR_67397_126244.IIQ,188,04:44.3,2096:165902.302231,XXXX,XXXX,-122.998852,50.776491,4150.760 m,5.99,1.02,48.05,T,1250,5.6,1000
2096_165907.302218189C000622-04-49.302_NIR_67398_126245.IIQ,189,04:49.3,2096:165907.302218,XXXX,XXXX,-122.994811,50.778348,4143.880 m,2.71,1.29,48.95,T,1250,5.6,1000
2096_165912.301723190C000622-04-54.301_NIR_67399_126246.IIQ,190,04:54.3,2096:165912.301723,XXXX,XXXX,-122.990617,50.78023,4126.590 m,2.98,1.04,49.9,T,1250,5.6,1000
2096_165917.302469191C000622-04-59.302_NIR_67400_126247.IIQ,191,04:59.3,2096:165917.302469,XXXX,XXXX,-122.986313,50.78212,4125.869 m,8.23,0.25,50.39,T,1250,5.6,1000
2096_165922.302518192C000622-05-04.302_NIR_67401_126248.IIQ,192,05:04.3,2096:165922.302518,XXXX,XXXX,-122.982122,50.783927,4148.260 m,9.47,-0.23,50.19,T,1250,5.6,1000
2096_165927.301971193C000622-05-09.301_NIR_67402_126249.IIQ,193,05:09.3,2096:165927.301971,XXXX,XXXX,-122.97809,50.785651,4165.390 m,6.74,0.37,50.11,T,1250,5.6,1000
2096_165932.301724194C000622-05-14.301_NIR_67403_126250.IIQ,194,05:14.3,2096:165932.301724,XXXX,XXXX,-122.974067,50.787352,4163.289 m,3.08,0.73,50.66,T,1250,5.6,1000
2096_165937.302474195C000622-05-19.302_NIR_67404_126251.IIQ,195,05:19.3,2096:165937.302474,XXXX,XXXX,-122.969923,50.789092,4154.039 m,5.05,-0.93,50.81,T,1250,5.6,800
2096_165942.302226196C000622-05-24.302_NIR_67405_126252.IIQ,196,05:24.3,2096:165942.302226,XXXX,XXXX,-122.965763,50.790869,4155.849 m,5.24,-0.57,50.4,T,1250,5.6,800
2096_165947.302977197C000622-05-29.302_NIR_67406_126253.IIQ,197,05:29.3,2096:165947.302977,XXXX,XXXX,-122.96161,50.792671,4150.409 m,3.88,-0.46,50.26,T,1250,5.6,800
2096_165952.301727198C000622-05-34.301_NIR_67407_126254.IIQ,198,05:34.3,2096:165952.301727,XXXX,XXXX,-122.957403,50.794508,4143.489 m,4.78,-0.63,50.03,T,1250,5.6,640
2096_165957.302476199C000622-05-39.302_NIR_67408_126255.IIQ,199,05:39.3,2096:165957.302476,XXXX,XXXX,-122.95318,50.796359,4143.970 m,5.03,-0.34,50.38,T,1250,5.6,640
2096_165962.302228200C000622-05-44.302_NIR_67409_126256.IIQ,200,05:44.3,2096:165962.302228,XXXX,XXXX,-122.948948,50.798223,4138.270 m,2.68,-0.45,50.27,T,1250,5.6,640
2096_165967.302977201C000622-05-49.302_NIR_67410_126257.IIQ,201,05:49.3,2096:165967.302977,XXXX,XXXX,-122.944632,50.800135,4125.129 m,2.32,-0.05,50.66,T,1250,5,640
2096_165972.302728202C000622-05-54.302_NIR_67411_126258.IIQ,202,05:54.3,2096:165972.302728,XXXX,XXXX,-122.940223,50.802094,4118.229 m,4.18,-0.07,50.84,T,1250,5,640
2096_165977.302481203C000622-05-59.302_NIR_67412_126259.IIQ,203,05:59.3,2096:165977.302481,XXXX,XXXX,-122.935813,50.804055,4124.599 m,6.41,0.49,50.66,T,1250,4.5,640
2096_165982.303229204C000622-06-04.303_NIR_67413_126260.IIQ,204,06:04.3,2096:165982.303229,XXXX,XXXX,-122.931484,50.805964,4139.630 m,7.3,0.03,50.68,T,1250,4.5,640
2096_165987.301979205C000622-06-09.301_NIR_67414_126261.IIQ,205,06:09.3,2096:165987.301979,XXXX,XXXX,-122.927264,50.807816,4153.329 m,6.66,-0.12,50.58,T,1250,4.5,640
2096_165992.302731206C000622-06-14.302_NIR_67415_126262.IIQ,206,06:14.3,2096:165992.302731,XXXX,XXXX,-122.923093,50.80963,4157.489 m,4.68,-0.62,50.52,T,1250,4.5,640
2096_165997.302483207C000622-06-19.302_NIR_67416_126263.IIQ,207,06:19.3,2096:165997.302483,XXXX,XXXX,-122.918896,50.811462,4149.589 m,2.76,-0.6,50.58,T,1250,4.5,640
2096_166002.302233208C000622-06-24.302_NIR_67417_126264.IIQ,208,06:24.3,2096:166002.302233,XXXX,XXXX,-122.914603,50.813347,4133.529 m,2.67,0.41,50.63,T,1250,4.5,640
2096_166007.30298209C000622-06-29.302_NIR_67418_126265.IIQ,209,06:29.3,2096:166007.30298,XXXX,XXXX,-122.910191,50.815263,4124.929 m,4.34,0.28,51.02,T,1250,4.5,640
2096_166012.302731210C000622-06-34.302_NIR_67419_126266.IIQ,210,06:34.3,2096:166012.302731,XXXX,XXXX,-122.905741,50.81717,4130.939 m,6.2,0.03,51.54,T,1000,4.5,640
2096_166017.302483211C000622-06-39.302_NIR_67420_126267.IIQ,211,06:39.3,2096:166017.302483,XXXX,XXXX,-122.901353,50.819037,4147.159 m,7.12,-0.05,50.92,T,800,4.5,640
2096_166022.302228212C000622-06-44.302_NIR_67421_126268.IIQ,212,06:44.3,2096:166022.302228,XXXX,XXXX,-122.897055,50.820862,4156.670 m,4.58,0.14,50.98,T,800,4.5,640
2096_166027.302981213C000622-06-49.302_NIR_67422_126269.IIQ,213,06:49.3,2096:166027.302981,XXXX,XXXX,-122.892738,50.822705,4149.799 m,2.21,-0.68,50.71,T,800,4.5,640
2096_166032.302728214C000622-06-54.302_NIR_67423_126270.IIQ,214,06:54.3,2096:166032.302728,XXXX,XXXX,-122.888321,50.824611,4134.090 m,2.78,-0.16,50.8,T,800,4.5,640
2096_166037.302479215C000622-06-59.302_NIR_67424_126271.IIQ,215,06:59.3,2096:166037.302479,XXXX,XXXX,-122.883828,50.826556,4131.369 m,6.08,-0.77,50.65,T,800,4.5,640
2096_166042.303227216C000622-07-04.303_NIR_67425_126272.IIQ,216,07:04.3,2096:166042.303227,XXXX,XXXX,-122.879423,50.828486,4142.960 m,7.1,-0.54,49.42,T,800,4.5,640
2096_166047.302975217C000622-07-09.302_NIR_67426_126273.IIQ,217,07:09.3,2096:166047.302975,XXXX,XXXX,-122.875126,50.83037,4154.909 m,5.95,0.73,49.87,T,640,4.5,640
2096_166052.302726218C000622-07-14.302_NIR_67427_126274.IIQ,218,07:14.3,2096:166052.302726,XXXX,XXXX,-122.870831,50.832207,4157.050 m,4.05,0.75,50.41,T,640,4.5,640
2096_166057.302473219C000622-07-19.302_NIR_67428_126275.IIQ,219,07:19.3,2096:166057.302473,XXXX,XXXX,-122.866468,50.834041,4149.510 m,2.87,-0.11,50.99,T,640,4.5,640
2096_166062.303221220C000622-07-24.303_NIR_67429_126276.IIQ,220,07:24.3,2096:166062.303221,XXXX,XXXX,-122.862023,50.835914,4139.290 m,3.07,-0.77,51.04,T,640,4.5,640
2096_166067.302971221C000622-07-29.302_NIR_67430_126277.IIQ,221,07:29.3,2096:166067.302971,XXXX,XXXX,-122.85755,50.837834,4135.380 m,5.08,-0.5,50.75,T,640,4.5,640
2096_166072.302723222C000622-07-34.302_NIR_67431_126278.IIQ,222,07:34.3,2096:166072.302723,XXXX,XXXX,-122.853133,50.839745,4142.649 m,7.28,-0.85,50.58,T,800,4.5,640
2096_166077.301291223C000622-07-39.301_NIR_67432_126279.IIQ,223,07:39.3,2096:166077.301291,XXXX,XXXX,-122.848866,50.841615,4155.180 m,7.43,-0.66,50.01,T,800,4.5,640
2096_166247.413889224C000622-10-29.413_NIR_67433_126280.IIQ,224,10:29.4,2096:166247.413889,XXXX,XXXX,-122.828141,50.834511,4206.279 m,6.14,-0.27,241.75999,T,800,4.5,640
2096_166252.414913225C000622-10-34.414_NIR_67434_126281.IIQ,225,10:34.4,2096:166252.414913,XXXX,XXXX,-122.831417,50.83302,4207.059 m,5.31,1.15,242.86,T,1000,4.5,640
2096_166257.415157226C000622-10-39.415_NIR_67435_126282.IIQ,226,10:39.4,2096:166257.415157,XXXX,XXXX,-122.834771,50.831556,4203.099 m,5.01,0.43,242.84,T,1000,4.5,640
2096_166262.415442227C000622-10-44.415_NIR_67436_126283.IIQ,227,10:44.4,2096:166262.415442,XXXX,XXXX,-122.838188,50.830088,4199.289 m,5.39,1.11,243.39999,T,1000,4.5,640
2096_166267.414654228C000622-10-49.414_NIR_67437_126284.IIQ,228,10:49.4,2096:166267.414654,XXXX,XXXX,-122.841659,50.828638,4198.560 m,6.11,-0.03,243.92999,T,1000,4.5,640
2096_166272.414972229C000622-10-54.414_NIR_67438_126285.IIQ,229,10:54.4,2096:166272.414972,XXXX,XXXX,-122.845142,50.827203,4201.610 m,6.76,-0.97,244.64,T,1000,4.5,640
2096_166277.415156230C000622-10-59.415_NIR_67439_126286.IIQ,230,10:59.4,2096:166277.415156,XXXX,XXXX,-122.848572,50.825751,4206.609 m,7.15,-0.23,243.39999,T,1000,4.5,640
2096_166282.415501231C000622-11-04.415_NIR_67440_126287.IIQ,231,11:04.4,2096:166282.415501,XXXX,XXXX,-122.851948,50.824308,4212.260 m,7.08,1.79,244.60001,T,1000,4.5,640
2096_166287.414653232C000622-11-09.414_NIR_67441_126288.IIQ,232,11:09.4,2096:166287.414653,XXXX,XXXX,-122.855305,50.822908,4216.180 m,6.71,-0.22,243.56,T,1000,4.5,640
2096_166292.416037233C000622-11-14.416_NIR_67442_126289.IIQ,233,11:14.4,2096:166292.416037,XXXX,XXXX,-122.858614,50.821468,4216.840 m,6.16,0.95,242.52,T,1000,4.5,640
2096_166297.416155234C000622-11-19.416_NIR_67443_126290.IIQ,234,11:19.4,2096:166297.416155,XXXX,XXXX,-122.861952,50.820053,4216.630 m,5.88,-0.32,244.25,T,1000,4.5,640
2096_166302.415581235C000622-11-24.415_NIR_67444_126291.IIQ,235,11:24.4,2096:166302.415581,XXXX,XXXX,-122.865308,50.818636,4216.129 m,5.76,-0.94,242.38,T,1000,4.5,640
2096_166307.415654236C000622-11-29.415_NIR_67445_126292.IIQ,236,11:29.4,2096:166307.415654,XXXX,XXXX,-122.868642,50.817171,4215.179 m,5.95,-0.96,241.64999,T,1000,4.5,640
2096_166312.416102237C000622-11-34.416_NIR_67446_126293.IIQ,237,11:34.4,2096:166312.416102,XXXX,XXXX,-122.871941,50.81567,4215.369 m,6.47,-1.94,240.21001,T,1000,4.5,640
2096_166317.415154238C000622-11-39.415_NIR_67447_126294.IIQ,238,11:39.4,2096:166317.415154,XXXX,XXXX,-122.875168,50.814124,4216.480 m,6.28,-0.14,239.28999,T,1000,4.5,640
2096_166322.414903239C000622-11-44.414_NIR_67448_126295.IIQ,239,11:44.4,2096:166322.414903,XXXX,XXXX,-122.878378,50.812577,4216.159 m,5.53,1.95,239.83,T,1000,4.5,640
2096_166327.415401240C000622-11-49.415_NIR_67449_126296.IIQ,240,11:49.4,2096:166327.415401,XXXX,XXXX,-122.881665,50.811074,4211.920 m,4.4,0.52,241.77,T,1000,4.5,640
2096_166332.415166241C000622-11-54.415_NIR_67450_126297.IIQ,241,11:54.4,2096:166332.415166,XXXX,XXXX,-122.885055,50.809582,4204.059 m,4.14,0.31,242.08,T,1000,4.5,640
2096_166337.415153242C000622-11-59.415_NIR_67451_126298.IIQ,242,11:59.4,2096:166337.415153,XXXX,XXXX,-122.888528,50.808077,4198.489 m,4.9,-0.25,242.39999,T,1000,4.5,640
2096_166342.415902243C000622-12-04.415_NIR_67452_126299.IIQ,243,12:04.4,2096:166342.415902,XXXX,XXXX,-122.892031,50.806565,4200.149 m,6.16,-0.95,242.5,T,1000,4.5,640
2096_166347.415651244C000622-12-09.415_NIR_67453_126300.IIQ,244,12:09.4,2096:166347.415651,XXXX,XXXX,-122.895477,50.805038,4207.710 m,6.88,-1.98,241.8,T,1000,4.5,640
2096_166352.416231245C000622-12-14.416_NIR_67454_126301.IIQ,245,12:14.4,2096:166352.416231,XXXX,XXXX,-122.898808,50.803463,4215.920 m,6.75,-0.85,239.98,T,1000,4.5,640
2096_166357.415995246C000622-12-19.415_NIR_67455_126302.IIQ,246,12:19.4,2096:166357.415995,XXXX,XXXX,-122.902066,50.801871,4220.200 m,6.05,1.46,241.42999,T,1000,4.5,640
2096_166362.415899247C000622-12-24.415_NIR_67456_126303.IIQ,247,12:24.4,2096:166362.415899,XXXX,XXXX,-122.905347,50.800309,4218.810 m,5.3,1.23,240.72,T,1000,4.5,640
2096_166367.415527248C000622-12-29.415_NIR_67457_126304.IIQ,248,12:29.4,2096:166367.415527,XXXX,XXXX,-122.908672,50.798747,4214.260 m,4.78,-0.97,240.88,T,1000,4.5,640
2096_166372.416393249C000622-12-34.416_NIR_67458_126305.IIQ,249,12:34.4,2096:166372.416393,XXXX,XXXX,-122.912059,50.797174,4209.250 m,4.7,2.89,242.94,T,1000,4.5,640
2096_166377.415142250C000622-12-39.415_NIR_67459_126306.IIQ,250,12:39.4,2096:166377.415142,XXXX,XXXX,-122.915554,50.795662,4206.839 m,5.36,2.04,243.08,T,1000,4.5,640
2096_166382.415822251C000622-12-44.415_NIR_67460_126307.IIQ,251,12:44.4,2096:166382.415822,XXXX,XXXX,-122.919115,50.794219,4210.529 m,6.18,3.37,245.28999,T,1000,4.5,640
2096_166387.415642252C000622-12-49.415_NIR_67461_126308.IIQ,252,12:49.4,2096:166387.415642,XXXX,XXXX,-122.922712,50.79287,4217.870 m,6.17,-3.88,244.85001,T,1000,4.5,640
2096_166392.415349253C000622-12-54.415_NIR_67462_126309.IIQ,253,12:54.4,2096:166392.415349,XXXX,XXXX,-122.926232,50.791451,4222.530 m,5.47,-1.39,243.38,T,1000,4.5,640
2096_166397.415149254C000622-12-59.415_NIR_67463_126310.IIQ,254,12:59.4,2096:166397.415149,XXXX,XXXX,-122.929724,50.78997,4223.730 m,4.71,1.59,244.34,T,800,4.5,640
2096_166402.415884255C000622-13-04.415_NIR_67464_126311.IIQ,255,13:04.4,2096:166402.415884,XXXX,XXXX,-122.933278,50.788495,4222.360 m,4.52,-0.92,243.85001,T,800,4.5,640
2096_166407.41566256C000622-13-09.415_NIR_67465_126312.IIQ,256,13:09.4,2096:166407.41566,XXXX,XXXX,-122.93686,50.786981,4220.510 m,4.95,-0.68,243.60001,T,800,4.5,640
2096_166412.416415257C000622-13-14.416_NIR_67466_126313.IIQ,257,13:14.4,2096:166412.416415,XXXX,XXXX,-122.940441,50.785439,4222.809 m,5.77,0.2,243.87,T,640,4.5,640
2096_166417.416128258C000622-13-19.416_NIR_67467_126314.IIQ,258,13:19.4,2096:166417.416128,XXXX,XXXX,-122.94399,50.783896,4229.179 m,6.47,-0.79,244.22,T,640,4.5,640
2096_166422.41595259C000622-13-24.415_NIR_67468_126315.IIQ,259,13:24.4,2096:166422.41595,XXXX,XXXX,-122.947471,50.782349,4236.189 m,6.54,-0.17,243.58,T,640,4.5,640
2096_166427.415719260C000622-13-29.415_NIR_67469_126316.IIQ,260,13:29.4,2096:166427.415719,XXXX,XXXX,-122.950908,50.780819,4240.750 m,6.32,0.42,243.72,T,640,4.5,640
2096_166432.416484261C000622-13-34.416_NIR_67470_126317.IIQ,261,13:34.4,2096:166432.416484,XXXX,XXXX,-122.954324,50.779314,4244.850 m,5.95,0.67,244.44,T,640,4.5,640
2096_166437.415249262C000622-13-39.415_NIR_67471_126318.IIQ,262,13:39.4,2096:166437.415249,XXXX,XXXX,-122.957728,50.777828,4250.690 m,5.95,-0.97,245.17999,T,640,4.5,640
2096_166442.415864263C000622-13-44.415_NIR_67472_126319.IIQ,263,13:44.4,2096:166442.415864,XXXX,XXXX,-122.961106,50.776335,4255.989 m,5.82,0.19,244.53999,T,640,4.5,640
2096_166447.414786264C000622-13-49.414_NIR_67473_126320.IIQ,264,13:49.4,2096:166447.414786,XXXX,XXXX,-122.964477,50.774847,4259.329 m,5.42,-0.28,245.3,T,640,4.5,640
2096_166452.415549265C000622-13-54.415_NIR_67474_126321.IIQ,265,13:54.4,2096:166452.415549,XXXX,XXXX,-122.967855,50.773347,4263.079 m,5.42,-0.86,245.2,T,640,4.5,640
2096_166457.416107266C000622-13-59.416_NIR_67475_126322.IIQ,266,13:59.4,2096:166457.416107,XXXX,XXXX,-122.971222,50.771817,4266.140 m,4.48,-0.18,244.16,T,500,4.5,640
2096_166462.416082267C000622-14-04.416_NIR_67476_126323.IIQ,267,14:04.4,2096:166462.416082,XXXX,XXXX,-122.974644,50.770265,4255.340 m,1.27,1.21,245,T,500,4.5,640
2096_166467.416601268C000622-14-09.416_NIR_67477_126324.IIQ,268,14:09.4,2096:166467.416601,XXXX,XXXX,-122.978243,50.768697,4237.920 m,3.24,-2.97,244.75,T,400,4.5,640
2096_166472.415612269C000622-14-14.415_NIR_67478_126325.IIQ,269,14:14.4,2096:166472.415612,XXXX,XXXX,-122.981903,50.767058,4224.590 m,1.88,1.55,243.7,T,400,4.5,640
2096_166477.416096270C000622-14-19.416_NIR_67479_126326.IIQ,270,14:19.4,2096:166477.416096,XXXX,XXXX,-122.9857,50.765413,4206.970 m,1.76,0.26,244.55,T,400,4.5,640
2096_166482.416145271C000622-14-24.416_NIR_67480_126327.IIQ,271,14:24.4,2096:166482.416145,XXXX,XXXX,-122.989625,50.763756,4192.239 m,2.96,-0.84,243.99001,T,400,4.5,640
2096_166487.41559272C000622-14-29.415_NIR_67481_126328.IIQ,272,14:29.4,2096:166487.41559,XXXX,XXXX,-122.993607,50.762103,4188.469 m,4.89,1.39,244.75,T,400,4.5,640
2096_166492.416341273C000622-14-34.416_NIR_67482_126329.IIQ,273,14:34.4,2096:166492.416341,XXXX,XXXX,-122.997542,50.760478,4196.309 m,5.69,-1.71,242.97,T,400,4.5,640
2096_166497.416445274C000622-14-39.416_NIR_67483_126330.IIQ,274,14:39.4,2096:166497.416445,XXXX,XXXX,-123.001339,50.758823,4205.100 m,5.24,-0.65,243.14999,T,320,4.5,640
2096_166502.416206275C000622-14-44.416_NIR_67484_126331.IIQ,275,14:44.4,2096:166502.416206,XXXX,XXXX,-123.005081,50.757188,4209.789 m,4.16,0.21,243.42,T,320,4.5,640
2096_166507.415972276C000622-14-49.415_NIR_67485_126332.IIQ,276,14:49.4,2096:166507.415972,XXXX,XXXX,-123.008815,50.755538,4208.550 m,3.43,-3.27,243.33,T,320,4.5,640
2096_166512.416337277C000622-14-54.416_NIR_67486_126333.IIQ,277,14:54.4,2096:166512.416337,XXXX,XXXX,-123.012456,50.753732,4205.380 m,3.7,-4.34,239.66,T,320,4.5,640
2096_166517.416082278C000622-14-59.416_NIR_67487_126334.IIQ,278,14:59.4,2096:166517.416082,XXXX,XXXX,-123.01603,50.751835,4204.649 m,4.28,5.06,242.28,T,320,4.5,640
2096_166522.416269279C000622-15-04.416_NIR_67488_126335.IIQ,279,15:04.4,2096:166522.416269,XXXX,XXXX,-123.019732,50.750109,4207.629 m,4.95,2.15,245.00999,T,400,4.5,640
2096_166527.416036280C000622-15-09.416_NIR_67489_126336.IIQ,280,15:09.4,2096:166527.416036,XXXX,XXXX,-123.02345,50.74848,4214.450 m,5.54,1.93,245.47,T,400,4.5,640
2096_166532.416798281C000622-15-14.416_NIR_67490_126337.IIQ,281,15:14.4,2096:166532.416798,XXXX,XXXX,-123.027136,50.746915,4220.909 m,5.43,1.13,245.77,T,400,4.5,640
2096_166537.416075282C000622-15-19.416_NIR_67491_126338.IIQ,282,15:19.4,2096:166537.416075,XXXX,XXXX,-123.030804,50.745409,4224.020 m,4.72,0.79,247.02,T,400,4.5,640
2096_166542.416333283C000622-15-24.416_NIR_67492_126339.IIQ,283,15:24.4,2096:166542.416333,XXXX,XXXX,-123.034492,50.743944,4222.789 m,4.1,-0.41,247.23,T,320,4.5,640
2096_166547.416571284C000622-15-29.416_NIR_67493_126340.IIQ,284,15:29.4,2096:166547.416571,XXXX,XXXX,-123.0382,50.742471,4218.430 m,3.81,-0.76,246.87,T,320,4.5,640
2096_166552.41632285C000622-15-34.416_NIR_67494_126341.IIQ,285,15:34.4,2096:166552.41632,XXXX,XXXX,-123.041928,50.740963,4213.500 m,3.72,-0.18,246.61,T,320,4.5,640
2096_166557.416635286C000622-15-39.416_NIR_67495_126342.IIQ,286,15:39.4,2096:166557.416635,XXXX,XXXX,-123.045658,50.739396,4209.460 m,3.87,-0.56,245.35001,T,320,4.5,640
2096_166562.416816287C000622-15-44.416_NIR_67496_126343.IIQ,287,15:44.4,2096:166562.416816,XXXX,XXXX,-123.049392,50.737797,4207.829 m,4.11,-1,245.56,T,320,4.5,640
2096_166567.417173288C000622-15-49.417_NIR_67497_126344.IIQ,288,15:49.4,2096:166567.417173,XXXX,XXXX,-123.053121,50.736178,4208.480 m,4.41,-0.66,244.61,T,320,4.5,640
2096_166572.416311289C000622-15-54.416_NIR_67498_126345.IIQ,289,15:54.4,2096:166572.416311,XXXX,XXXX,-123.056821,50.734538,4209.380 m,4.79,-0.74,243.92999,T,320,4.5,640
2096_166577.416706290C000622-15-59.416_NIR_67499_126346.IIQ,290,15:59.4,2096:166577.416706,XXXX,XXXX,-123.060479,50.732884,4210.189 m,5.02,-0.14,243.78999,T,320,4.5,640
2096_166582.415801291C000622-16-04.415_NIR_67500_126347.IIQ,291,16:04.4,2096:166582.415801,XXXX,XXXX,-123.064118,50.731251,4209.789 m,4.48,0.35,243.57001,T,320,4.5,640
2096_166587.416551292C000622-16-09.416_NIR_67501_126348.IIQ,292,16:09.4,2096:166587.416551,XXXX,XXXX,-123.067785,50.729631,4204.569 m,3.92,0.35,243.44,T,320,4.5,640
2096_166592.416296293C000622-16-14.416_NIR_67502_126349.IIQ,293,16:14.4,2096:166592.416296,XXXX,XXXX,-123.071498,50.728009,4201.120 m,5.15,-0.29,243.87,T,320,4.5,640
2096_166597.416045294C000622-16-19.416_NIR_67503_126350.IIQ,294,16:19.4,2096:166597.416045,XXXX,XXXX,-123.075179,50.726386,4207.650 m,6.9,-0.03,243.34,T,320,4.5,640
2096_166602.416793295C000622-16-24.416_NIR_67504_126351.IIQ,295,16:24.4,2096:166602.416793,XXXX,XXXX,-123.078708,50.72475,4220.800 m,7.84,-0.88,241.49001,T,320,4.5,640
2096_166607.4163296C000622-16-29.416_NIR_67505_126352.IIQ,296,16:29.4,2096:166607.4163,XXXX,XXXX,-123.082098,50.723142,4231.899 m,6.22,-0.05,242.16,T,320,4.5,640
2096_166612.417293297C000622-16-34.417_NIR_67506_126353.IIQ,297,16:34.4,2096:166612.417293,XXXX,XXXX,-123.085491,50.721579,4229.979 m,3.13,1.98,243.23,T,320,4.5,640
2096_166617.416038298C000622-16-39.416_NIR_67507_126354.IIQ,298,16:39.4,2096:166617.416038,XXXX,XXXX,-123.089048,50.720045,4215.009 m,1.79,0.57,243.84,T,320,4.5,640
2096_166622.416787299C000622-16-44.416_NIR_67508_126355.IIQ,299,16:44.4,2096:166622.416787,XXXX,XXXX,-123.092791,50.718488,4201.610 m,3.62,-0.99,244.49001,T,320,4.5,800
2096_166627.416361300C000622-16-49.416_NIR_67509_126356.IIQ,300,16:49.4,2096:166627.416361,XXXX,XXXX,-123.096568,50.716887,4204.920 m,6.55,-2.78,243.03,T,320,4.5,800
2096_166632.416285301C000622-16-54.416_NIR_67510_126357.IIQ,301,16:54.4,2096:166632.416285,XXXX,XXXX,-123.100194,50.715231,4219.100 m,5.8,1.58,243.41,T,320,4.5,800
2096_166673.95249302C000622-17-35.952_NIR_67511_126358.IIQ,302,17:36.0,2096:166673.95249,XXXX,XXXX,-123.130624,50.701851,4218.729 m,5.67,1.09,246.64,T,400,4.5,800
2096_166678.9519303C000622-17-40.951_NIR_67512_126359.IIQ,303,17:41.0,2096:166678.9519,XXXX,XXXX,-123.134246,50.700325,4221.529 m,4.66,-3.96,244.46001,T,500,4.5,800
2096_166683.954028304C000622-17-45.954_NIR_67513_126360.IIQ,304,17:46.0,2096:166683.954028,XXXX,XXXX,-123.137819,50.698721,4215.789 m,3.35,-0.42,244.59,T,500,4.5,800
2096_166688.953444305C000622-17-50.953_NIR_67514_126361.IIQ,305,17:51.0,2096:166688.953444,XXXX,XXXX,-123.141458,50.697105,4204.720 m,4.21,-0.68,244.8,T,640,4.5,800
2096_166693.953566306C000622-17-55.953_NIR_67515_126362.IIQ,306,17:56.0,2096:166693.953566,XXXX,XXXX,-123.145145,50.695528,4205.949 m,5.68,2.43,246.56,T,640,4.5,800
2096_166698.953933307C000622-18-00.953_NIR_67516_126363.IIQ,307,18:01.0,2096:166698.953933,XXXX,XXXX,-123.148832,50.694014,4210.850 m,4.94,-0.95,247.46001,T,640,4.5,800
2096_166703.953102308C000622-18-05.953_NIR_67517_126364.IIQ,308,18:06.0,2096:166703.953102,XXXX,XXXX,-123.152506,50.692479,4208.859 m,3.85,-1.75,245.59,T,640,4.5,800
2096_166708.953425309C000622-18-10.953_NIR_67518_126365.IIQ,309,18:11.0,2096:166708.953425,XXXX,XXXX,-123.156226,50.690919,4203.479 m,3.46,3.39,246.91,T,640,4.5,800
2096_166713.953638310C000622-18-15.953_NIR_67519_126366.IIQ,310,18:16.0,2096:166713.953638,XXXX,XXXX,-123.16002,50.689373,4199.509 m,4.27,-0.03,246.22,T,500,4.5,800
2096_166718.953917311C000622-18-20.953_NIR_67520_126367.IIQ,311,18:21.0,2096:166718.953917,XXXX,XXXX,-123.163797,50.687798,4201.720 m,5.22,-0.81,244.98,T,500,4.5,800
2096_166723.953176312C000622-18-25.953_NIR_67521_126368.IIQ,312,18:26.0,2096:166723.953176,XXXX,XXXX,-123.16751,50.686209,4208.770 m,5.44,0.56,245.44,T,400,4.5,800
2096_166728.953944313C000622-18-30.953_NIR_67522_126369.IIQ,313,18:31.0,2096:166728.953944,XXXX,XXXX,-123.17119,50.684652,4214.349 m,4.98,0.42,245.83,T,320,4.5,800
2096_166733.953161314C000622-18-35.953_NIR_67523_126370.IIQ,314,18:36.0,2096:166733.953161,XXXX,XXXX,-123.174873,50.683118,4214.639 m,4.21,-1.16,245.75,T,320,4.5,800
2096_166738.953911315C000622-18-40.953_NIR_67524_126371.IIQ,315,18:41.0,2096:166738.953911,XXXX,XXXX,-123.178556,50.681537,4210.729 m,4.35,-0.48,244.77,T,320,4.5,800
2096_166743.953247316C000622-18-45.953_NIR_67525_126372.IIQ,316,18:46.0,2096:166743.953247,XXXX,XXXX,-123.182244,50.679923,4208.490 m,4.6,-0.9,243.73,T,320,4.5,800
2096_166748.954017317C000622-18-50.954_NIR_67526_126373.IIQ,317,18:51.0,2096:166748.954017,XXXX,XXXX,-123.185915,50.678278,4207.930 m,5.25,-0.26,243.89999,T,320,4.5,800
2096_166753.953783318C000622-18-55.953_NIR_67527_126374.IIQ,318,18:56.0,2096:166753.953783,XXXX,XXXX,-123.189557,50.676644,4211.690 m,5.45,-0.79,243.44,T,320,4.5,800
2096_166758.953904319C000622-19-00.953_NIR_67528_126375.IIQ,319,19:01.0,2096:166758.953904,XXXX,XXXX,-123.193147,50.675005,4216.210 m,4.79,-0.11,242.92999,T,320,4.5,800
2096_166763.954319320C000622-19-05.954_NIR_67529_126376.IIQ,320,19:06.0,2096:166763.954319,XXXX,XXXX,-123.196728,50.673357,4216.389 m,3.77,0.14,243.25999,T,320,4.5,800
2096_166768.9534321C000622-19-10.953_NIR_67530_126377.IIQ,321,19:11.0,2096:166768.9534,XXXX,XXXX,-123.200368,50.671708,4211.819 m,3.06,0.07,244.25,T,320,4.5,800
2096_166773.953849322C000622-19-15.953_NIR_67531_126378.IIQ,322,19:16.0,2096:166773.953849,XXXX,XXXX,-123.204104,50.670067,4204.600 m,3.4,1.69,245.13,T,320,4.5,800
2096_166778.952899323C000622-19-20.952_NIR_67532_126379.IIQ,323,19:21.0,2096:166778.952899,XXXX,XXXX,-123.207934,50.668484,4200.789 m,5.02,0.87,246.16,T,320,4.5,800
2096_166971.657616324C000622-22-33.657_NIR_67533_126380.IIQ,324,22:33.7,2096:166971.657616,XXXX,XXXX,-123.092449,50.702858,4288.840 m,7.31,2.88,45.98,T,320,4.5,800
2096_166976.659382325C000622-22-38.659_NIR_67534_126381.IIQ,325,22:38.7,2096:166976.659382,XXXX,XXXX,-123.088823,50.704418,4285.649 m,7.1,0.42,47.4,T,400,4.5,800
2096_166981.659151326C000622-22-43.659_NIR_67535_126382.IIQ,326,22:43.7,2096:166981.659151,XXXX,XXXX,-123.085089,50.705992,4280.149 m,5.04,-0.38,47.41,T,400,4.5,800
2096_166986.658461327C000622-22-48.658_NIR_67536_126383.IIQ,327,22:48.7,2096:166986.658461,XXXX,XXXX,-123.081297,50.707636,4275.510 m,7.55,-0.76,46.91,T,400,4.5,800
2096_166991.657685328C000622-22-53.657_NIR_67537_126384.IIQ,328,22:53.7,2096:166991.657685,XXXX,XXXX,-123.07752,50.709303,4281.039 m,6.86,0.09,46.23,T,400,4.5,800
2096_166996.658961329C000622-22-58.658_NIR_67538_126385.IIQ,329,22:58.7,2096:166996.658961,XXXX,XXXX,-123.073727,50.710975,4282.510 m,6.96,0.05,46.94,T,400,4.5,800
2096_167001.65922330C000622-23-03.659_NIR_67539_126386.IIQ,330,23:03.7,2096:167001.65922,XXXX,XXXX,-123.069903,50.712636,4287.599 m,7.94,-0.17,46.89,T,400,4.5,800
2096_167006.659454331C000622-23-08.659_NIR_67540_126387.IIQ,331,23:08.7,2096:167006.659454,XXXX,XXXX,-123.066099,50.714283,4291.819 m,7.1,-0.57,46.72,T,400,4.5,800
2096_167011.659752332C000622-23-13.659_NIR_67541_126388.IIQ,332,23:13.7,2096:167011.659752,XXXX,XXXX,-123.062306,50.715944,4289.300 m,6.45,0.18,46.27,T,400,4.5,800
2096_167016.659955333C000622-23-18.659_NIR_67542_126389.IIQ,333,23:18.7,2096:167016.659955,XXXX,XXXX,-123.058485,50.717614,4285.949 m,6.69,0.4,46.67,T,400,4.5,800
2096_167021.658705334C000622-23-23.658_NIR_67543_126390.IIQ,334,23:23.7,2096:167021.658705,XXXX,XXXX,-123.054644,50.719277,4285.060 m,7.13,-0.59,46.69,T,400,4.5,800
2096_167026.659451335C000622-23-28.659_NIR_67544_126391.IIQ,335,23:28.7,2096:167026.659451,XXXX,XXXX,-123.050834,50.720947,4286.710 m,7.47,-0.01,45.71,T,400,4.5,800
2096_167031.658821336C000622-23-33.658_NIR_67545_126392.IIQ,336,23:33.7,2096:167031.658821,XXXX,XXXX,-123.047129,50.722651,4289.649 m,7.6,-0.3,44,T,400,4.5,800
2096_167036.659588337C000622-23-38.659_NIR_67546_126393.IIQ,337,23:38.7,2096:167036.659588,XXXX,XXXX,-123.043481,50.724361,4292.019 m,6.26,2.46,45.37,T,400,4.5,800
2096_167041.658354338C000622-23-43.658_NIR_67547_126394.IIQ,338,23:43.7,2096:167041.658354,XXXX,XXXX,-123.039714,50.726023,4286.479 m,4.54,1.8,48.37,T,400,4.5,800
2096_167046.659441339C000622-23-48.659_NIR_67548_126395.IIQ,339,23:48.7,2096:167046.659441,XXXX,XXXX,-123.03577,50.727664,4278.380 m,5.04,0.6,49.3,T,400,4.5,800
2096_167051.658883340C000622-23-53.658_NIR_67549_126396.IIQ,340,23:53.7,2096:167051.658883,XXXX,XXXX,-123.031736,50.729317,4274.319 m,5.42,1.08,48.89,T,400,4.5,800
2096_167056.659936341C000622-23-58.659_NIR_67550_126397.IIQ,341,23:58.7,2096:167056.659936,XXXX,XXXX,-123.027634,50.730964,4273.329 m,5.87,0.45,50.01,T,400,4.5,800
2096_167061.659417342C000622-24-03.659_NIR_67551_126398.IIQ,342,24:03.7,2096:167061.659417,XXXX,XXXX,-123.023506,50.732607,4274.210 m,6.19,-1.47,48.8,T,400,4.5,800
2096_167066.659429343C000622-24-08.659_NIR_67552_126399.IIQ,343,24:08.7,2096:167066.659429,XXXX,XXXX,-123.01945,50.734305,4275.210 m,6.09,-3.22,46.86,T,400,4.5,800
2096_167071.658948344C000622-24-13.658_NIR_67553_126400.IIQ,344,24:13.7,2096:167071.658948,XXXX,XXXX,-123.015548,50.736112,4275.590 m,5.81,-0.38,43.93,T,400,4.5,800
2096_167076.659925345C000622-24-18.659_NIR_67554_126401.IIQ,345,24:18.7,2096:167076.659925,XXXX,XXXX,-123.011696,50.737966,4276.720 m,5.91,-0.73,44.43,T,400,4.5,800
2096_167081.659489346C000622-24-23.659_NIR_67555_126402.IIQ,346,24:23.7,2096:167081.659489,XXXX,XXXX,-123.007873,50.739848,4278.670 m,5.79,2.02,43.47,T,400,4.5,800
2096_167086.659424347C000622-24-28.659_NIR_67556_126403.IIQ,347,24:28.7,2096:167086.659424,XXXX,XXXX,-123.004003,50.741716,4279.500 m,5.64,1.92,45.34,T,400,4.5,800
2096_167091.659011348C000622-24-33.659_NIR_67557_126404.IIQ,348,24:33.7,2096:167091.659011,XXXX,XXXX,-123.000033,50.743541,4278.679 m,5.49,1.09,46.63,T,400,4.5,800
2096_167096.658919349C000622-24-38.658_NIR_67558_126405.IIQ,349,24:38.7,2096:167096.658919,XXXX,XXXX,-122.995995,50.745345,4278.630 m,5.63,0.3,47,T,400,4.5,800
2096_167101.659543350C000622-24-43.659_NIR_67559_126406.IIQ,350,24:43.7,2096:167101.659543,XXXX,XXXX,-122.991915,50.747137,4279.800 m,5.71,0.83,47.91,T,400,4.5,800
2096_167106.65942351C000622-24-48.659_NIR_67560_126407.IIQ,351,24:48.7,2096:167106.65942,XXXX,XXXX,-122.987795,50.748911,4281.279 m,5.86,0.18,47.65,T,400,4.5,800
2096_167111.660078352C000622-24-53.660_NIR_67561_126408.IIQ,352,24:53.7,2096:167111.660078,XXXX,XXXX,-122.983666,50.75068,4283.700 m,6.07,-0.35,48.23,T,400,4.5,800
2096_167116.658917353C000622-24-58.658_NIR_67562_126409.IIQ,353,24:58.7,2096:167116.658917,XXXX,XXXX,-122.979553,50.752449,4286.560 m,6.18,-0.78,47.38,T,400,4.5,800
2096_167121.65962354C000622-25-03.659_NIR_67563_126410.IIQ,354,25:03.7,2096:167121.65962,XXXX,XXXX,-122.975477,50.754233,4289.379 m,5.99,0.09,47.46,T,400,4.5,800
2096_167126.65942355C000622-25-08.659_NIR_67564_126411.IIQ,355,25:08.7,2096:167126.65942,XXXX,XXXX,-122.971403,50.756013,4289.760 m,5.68,0.87,47.63,T,400,4.5,800
2096_167131.659176356C000622-25-13.659_NIR_67565_126412.IIQ,356,25:13.7,2096:167131.659176,XXXX,XXXX,-122.967301,50.757781,4289.220 m,5.59,-0.25,48.19,T,400,4.5,800
2096_167136.659932357C000622-25-18.659_NIR_67566_126413.IIQ,357,25:18.7,2096:167136.659932,XXXX,XXXX,-122.963193,50.759553,4291.640 m,5.67,-0.72,47.55,T,400,4.5,800
2096_167141.65969358C000622-25-23.659_NIR_67567_126414.IIQ,358,25:23.7,2096:167141.65969,XXXX,XXXX,-122.959102,50.761343,4294.760 m,5.47,0.68,47.29,T,500,4.5,800
2096_167146.659454359C000622-25-28.659_NIR_67568_126415.IIQ,359,25:28.7,2096:167146.659454,XXXX,XXXX,-122.954964,50.763119,4295.380 m,5.39,2.77,49.21,T,500,4.5,800
2096_167151.659216360C000622-25-33.659_NIR_67569_126416.IIQ,360,25:33.7,2096:167151.659216,XXXX,XXXX,-122.950726,50.764836,4295.379 m,5.81,-0.4,50,T,500,4.5,800
2096_167156.659905361C000622-25-38.659_NIR_67570_126417.IIQ,361,25:38.7,2096:167156.659905,XXXX,XXXX,-122.94651,50.766558,4299.829 m,5.66,-0.98,49.82,T,500,4.5,800
2096_167161.659747362C000622-25-43.659_NIR_67571_126418.IIQ,362,25:43.7,2096:167161.659747,XXXX,XXXX,-122.942338,50.768298,4303.929 m,4.67,-0.6,48.38,T,500,4.5,800
2096_167166.660401363C000622-25-48.660_NIR_67572_126419.IIQ,363,25:48.7,2096:167166.660401,XXXX,XXXX,-122.938185,50.77009,4302.010 m,3.35,-0.49,47.1,T,640,4.5,800
2096_167171.660278364C000622-25-53.660_NIR_67573_126420.IIQ,364,25:53.7,2096:167171.660278,XXXX,XXXX,-122.934008,50.771964,4294.630 m,2.88,0.57,46.57,T,640,4.5,800
2096_167176.659898365C000622-25-58.659_NIR_67574_126421.IIQ,365,25:58.7,2096:167176.659898,XXXX,XXXX,-122.929729,50.77388,4287.119 m,3.67,0.85,47.34,T,640,4.5,800
2096_167181.65981366C000622-26-03.659_NIR_67575_126422.IIQ,366,26:03.7,2096:167181.65981,XXXX,XXXX,-122.925365,50.775791,4286.710 m,5.38,-0.68,47.71,T,640,4.5,800
2096_167186.660391367C000622-26-08.660_NIR_67576_126423.IIQ,367,26:08.7,2096:167186.660391,XXXX,XXXX,-122.921049,50.777695,4295.960 m,6.68,-0.76,46.82,T,640,4.5,800
2096_167191.65934368C000622-26-13.659_NIR_67577_126424.IIQ,368,26:13.7,2096:167191.65934,XXXX,XXXX,-122.916835,50.779567,4308.649 m,6.36,0.08,46.88,T,800,4.5,800
2096_167196.659885369C000622-26-18.659_NIR_67578_126425.IIQ,369,26:18.7,2096:167196.659885,XXXX,XXXX,-122.91266,50.781397,4314.649 m,4.76,0.15,47.3,T,800,4.5,800
2096_167201.660881370C000622-26-23.660_NIR_67579_126426.IIQ,370,26:23.7,2096:167201.660881,XXXX,XXXX,-122.908446,50.783223,4309.940 m,3.04,0.95,47.48,T,800,4.5,800
2096_167206.668635371C000622-26-28.668_NIR_67580_126427.IIQ,371,26:28.7,2096:167206.668635,XXXX,XXXX,-122.904114,50.785074,4297.670 m,2.39,0.41,48.01,T,800,4.5,800
2096_167211.659401372C000622-26-33.659_NIR_67581_126428.IIQ,372,26:33.7,2096:167211.659401,XXXX,XXXX,-122.899673,50.78696,4286.370 m,3.14,-0.93,48.72,T,800,4.5,800
2096_167216.660886373C000622-26-38.660_NIR_67582_126429.IIQ,373,26:38.7,2096:167216.660886,XXXX,XXXX,-122.895183,50.788889,4284.519 m,5.24,-0.14,49.27,T,1000,4.5,800
2096_167221.660933374C000622-26-43.660_NIR_67583_126430.IIQ,374,26:43.7,2096:167221.660933,XXXX,XXXX,-122.890733,50.790802,4290.009 m,5.7,-0.72,48.26,T,1000,4.5,800
2096_167226.660388375C000622-26-48.660_NIR_67584_126431.IIQ,375,26:48.7,2096:167226.660388,XXXX,XXXX,-122.886346,50.792701,4294.390 m,4.99,-0.12,47.92,T,1000,4.5,800
2096_167231.659466376C000622-26-53.659_NIR_67585_126432.IIQ,376,26:53.7,2096:167231.659466,XXXX,XXXX,-122.881987,50.794593,4294.739 m,4.34,-0.33,47.52,T,1000,4.5,800
2096_167236.660235377C000622-26-58.660_NIR_67586_126433.IIQ,377,26:58.7,2096:167236.660235,XXXX,XXXX,-122.877617,50.796503,4289.250 m,3.22,-0.93,47.18,T,1000,4.5,800
2096_167241.660001378C000622-27-03.660_NIR_67587_126434.IIQ,378,27:03.7,2096:167241.660001,XXXX,XXXX,-122.873217,50.79846,4282.789 m,2.99,1.6,47.24,T,1250,4.5,800
2096_167246.660391379C000622-27-08.660_NIR_67588_126435.IIQ,379,27:08.7,2096:167246.660391,XXXX,XXXX,-122.868725,50.800415,4280.009 m,4.46,-0.3,47.73,T,1250,4.5,800
2096_167256.660307380C000622-27-18.660_NIR_67590_126437.IIQ,380,27:18.7,2096:167256.660307,XXXX,XXXX,-122.859809,50.804313,4293.329 m,5.38,-0.82,47.61,T,1250,4.5,800
2096_167261.660072381C000622-27-23.660_NIR_67591_126438.IIQ,381,27:23.7,2096:167261.660072,XXXX,XXXX,-122.855426,50.806248,4298.640 m,4.79,0.25,46.96,T,1250,4.5,800
2096_167266.66039382C000622-27-28.660_NIR_67592_126439.IIQ,382,27:28.7,2096:167266.66039,XXXX,XXXX,-122.851038,50.808177,4298.489 m,3.84,0.78,47.9,T,1250,4.5,800
2096_167271.660609383C000622-27-33.660_NIR_67593_126440.IIQ,383,27:33.7,2096:167271.660609,XXXX,XXXX,-122.846583,50.810102,4292.180 m,3.32,-0.89,47.28,T,1250,4.5,800
2096_167276.65989384C000622-27-38.659_NIR_67594_126441.IIQ,384,27:38.7,2096:167276.65989,XXXX,XXXX,-122.84208,50.812058,4284.690 m,3.5,0.8,47.76,T,1250,4.5,800
